Well_ID,S.No,State,District,Taluka,Site,Latitude,Longitude,Year,pH,EC,CO3,Cl,SO4,NO3,TH,Ca,Mg,Na,K,F,TDS,Water_Quality_New
W232200071580001,1,Gujarat,Ahmedabad,Mandal,Dalod,23.37,71.97,2020,8.2,16640.0,0,5176.0,822.0,26.0,1451.0,152.0,260.0,3535.0,45.0,1.0,11149.0,Poor
W231620072033001,2,Gujarat,Ahmedabad,Viramgam,Endla,23.27,71.06,2020,7.4,715.0,0,50.0,18.0,0.23000000000000004,280.0,56.0,34.0,47.0,11.0,0.46,479.0,Excellent
W222230071591001,3,Gujarat,Ahmedabad,Dhandhuka,Dhandhuka1,22.376073,71.987684,2020,8.2,7328.0,0,1546.0,494.0,220.0,681.0,72.0,122.0,1383.9999999999998,44.0,5.0,4910.0,Poor
W221745071565001,4,Gujarat,Ahmedabad,Dhandhuka,Tagadi1,22.296421,71.945626,2020,8.1,2960.0,0,269.0,798.0,43.0,550.0,132.0,54.0,437.0,24.0,0.8,1983.0,Poor
W220900071533001,5,Gujarat,Ahmedabad,Barwala,Barvala,22.162375,71.894176,2020,8.2,7338.0,0,1198.0,1002.0,33.0,380.0,32.0,73.0,1550.0,0.27,3.8,4916.0,Moderate
W220550071535001,6,Gujarat,Ahmedabad,Barwala,Lonjdhara,22.096372,71.893154,2020,8.2,1264.0,0,142.0,30.0,49.00000000000001,170.0,20.0,29.0,225.0,0.51,2.4,847.0,Excellent
W221830071413001,7,Gujarat,Ahmedabad,Ranpur,Rajpada,22.318608,71.69566,2020,8.1,708.0,0,57.0,30.0,37.0,240.0,40.08,34.0,70.0,0.31,0.73,474.0,Excellent
W221610071420001,8,Gujarat,Ahmedabad,Ranpur,Kundali,22.260329,71.668467,2020,8.2,735.0,0,35.0,17.0,11.0,310.0,44.00000000000001,49.0,45.0,0.26,0.37,491.99999999999994,Excellent
W213130071213001,9,Gujarat,Amreli,Lilia,Punjapadar,21.530495,71.359185,2020,7.1,436.0,0,35.0,38.0,0.39,80.0,24.0,4.9,68.0,4.2,0.51,292.0,Excellent
W191810084453301,10,Gujarat,Amreli,Lathi,Lathi,21.726976,71.382977,2020,8.2,1055.0,0,149.0,41.0,12.0,220.0,36.0,32.0,157.0,0.23,0.5,707.0,Excellent
W214330071280001,11,Gujarat,Amreli,Lathi,Tajpur,21.72537,71.461433,2020,7.9,444.0,0,28.0,19.0,5.5,160.0,40.0,15.0,37.0,1.94,0.4,297.0,Excellent
W214900071244501,12,Gujarat,Amreli,Lathi,Chavand,21.81105,71.40574,2020,8.1,607.0,0,35.0,23.0,5.2,210.0,40.0,27.0,57.99999999999999,0.9,0.4,407.0,Excellent
W215500071130001,13,Gujarat,Amreli,Babra,Untvad,21.906801,71.222832,2020,8.0,1215.0,0,156.0,57.0,174.0,510.0,128.0,46.0,63.0,0.38000000000000006,0.42,814.0,Moderate
W215730071121501,14,Gujarat,Amreli,Babra,Kotadapitha,21.951223,71.206321,2020,8.1,385.0,0,28.0,16.0,4.8,140.0,24.0,19.0,30.0,1.94,0.4,258.0,Excellent
W213945070590001,15,Gujarat,Amreli,Bagasara,Kunkavav,21.6555,70.980484,2020,7.8,1306.0,0,199.0,101.0,68.0,369.99999999999994,60.0,54.0,143.0,0.71,0.21999999999999997,875.0000000000001,Good
W213500070580001,16,Gujarat,Amreli,Bagasara,Vaghania juna,21.583441,70.969502,2020,8.0,1296.0,0,106.0,41.0,35.0,229.99999999999997,28.0,39.0,220.0,8.05,1.1,868.0000000000001,Excellent
W212845070574501,17,Gujarat,Amreli,Bagasara,Bagasara,21.476752,70.960818,2020,7.8,3589.0,0,780.0,260.0,230.0,1101.0,132.0,187.0,356.99999999999994,0.39,0.46,2405.0,Worst
W213630071133001,18,Gujarat,Amreli,Amreli,Amreli,21.609747,71.223979,2020,7.4,1280.0,0,199.0,96.0,50.0,410.0,100.0,39.0,112.0,1.3,0.14,858.0,Good
W213230071093001,19,Gujarat,Amreli,Amreli,Govadka,21.542967,71.157289,2020,7.6,507.0,0,50.0,26.0,18.0,160.0,32.0,19.0,50.0,9.5,0.29,340.0,Excellent
W213115071081001,20,Gujarat,Amreli,Amreli,Vankiya,21.539569,71.165526,2020,7.9,725.0,0,57.0,28.0,13.0,90.0,16.0,12.0,136.0,0.6700000000000002,0.69,486.0,Excellent
W212500071100001,21,Gujarat,Amreli,Dhari,Chalala,21.414865,71.165137,2020,8.2,580.0,0,71.0,32.0,8.8,200.0,36.0,27.0,52.0,0.99,0.21999999999999997,389.0,Excellent
W212234071070701,22,Gujarat,Amreli,Dhari,Morjhar,21.375768,71.113977,2020,7.8,833.0,0,121.0,30.0,22.0,330.0,60.0,44.0,61.0,0.3,0.18,558.0000000000001,Excellent
W212350071130001,23,Gujarat,Amreli,Dhari,Kerala,21.389715,71.217799,2020,8.1,1369.0,0,206.0,36.0,23.0,120.0,28.0,12.0,286.0,0.68,0.4099999999999999,917.0,Excellent
W212330071174501,24,Gujarat,Amreli,Kundla- Savar,Charkhadia1,21.388935,71.29323,2020,7.6,1152.0,0,50.0,35.0,17.0,50.0,16.0,2.4,262.0,2.9,2.25,772.0000000000001,Excellent
W212558071215001,25,Gujarat,Amreli,Kundla- Savar,Bhuva,21.427712,71.359647,2020,8.1,9343.0,0,2552.0,560.0,221.0,721.0,40.0,151.0,2008.0,81.0,0.84,6260.0,Poor
W212000071120001,26,Gujarat,Amreli,Dhari,Dharangani,21.328942,71.197764,2020,8.0,1687.0,0,347.0,64.0,135.0,490.0,96.0,61.0,188.0,0.86,0.29,1130.0,Poor
W211400071120001,27,Gujarat,Amreli,Khambha,Ingorala,21.226835,71.20256,2020,8.2,676.0,0,35.0,30.0,16.0,270.0,60.0,29.0,47.0,0.52,0.31,453.0,Excellent
W211515071090001,28,Gujarat,Amreli,Dhari,Virpur,21.253927,71.145876,2020,7.3,1098.0,0,57.0,51.0,89.99999999999999,450.0,104.0,46.0,65.0,3.5,0.25,736.0000000000001,Good
W214954071455801,29,Gujarat,Amreli,Jafrabad,Timbi2,20.897248,71.2021,2020,8.2,2073.0,0,390.0,112.0,85.0,390.0,48.0,66.0,341.0,19.0,0.83,1389.0,Moderate
W205430071213701,30,Gujarat,Amreli,Jafrabad,Kadiyali,20.861747,71.302268,2020,8.4,2680.0,24,674.0,27.0,8.9,450.0,132.0,29.0,363.00000000000006,12.0,1.0,1796.0,Moderate
W201200076010001,31,Gujarat,Amreli,Jafrabad,Jafrabad,20.868281,71.361554,2020,8.2,3374.0,0,645.0,177.0,150.0,320.0,40.0,54.0,528.0,210.0,0.61,2261.0,Moderate
W205745071260001,32,Gujarat,Amreli,Jafrabad,Lotpur,20.961527,71.431147,2020,8.2,8755.0,0,2567.0,477.0,114.0,901.0,64.0,179.968,1698.0,6.1000000000000005,0.27,5866.0,Poor
W205205071214501,33,Gujarat,Amreli,Jafrabad,Bherai,20.974028,71.486826,2020,8.4,3112.0,36,581.0,154.00000000000003,46.0,450.0,32.0,90.0,515.0,13.0,0.86,2085.0,Moderate
W205530071211501,34,Gujarat,Amreli,Jafrabad,Nageshri,20.919667,71.342351,2020,7.7,1390.0,0,156.0,107.0,49.00000000000001,369.99999999999994,72.0,46.0,164.0,7.5,0.27,931.0000000000001,Excellent
W210100071165001,35,Gujarat,Amreli,Khambha,Trakuda,21.016512,71.282878,2020,7.5,452.0,0,50.0,26.0,0.76,150.0,36.0,15.0,44.00000000000001,1.5,0.27,303.0,Excellent
W210900071142001,36,Gujarat,Amreli,Khambha,Khamba,21.146447,71.23811,2020,8.2,698.0,0,35.0,22.0,24.0,240.0,48.0,29.0,68.0,0.41,0.26,468.0,Excellent
W211400071150001,37,Gujarat,Amreli,Khambha,Vankiya1,21.232187,71.25327,2020,8.2,1408.0,0,142.0,84.99999999999999,136.0,470.0,92.0,58.0,136.0,1.9,0.28,943.0000000000001,Moderate
W211557071202001,38,Gujarat,Amreli,Kundla- Savar,Badhda,21.266366,71.338387,2020,8.2,1275.0,0,177.0,100.0,123.99999999999999,430.0,52.0,73.0,101.0,0.79,0.21,854.0000000000001,Good
W211330071244001,39,Gujarat,Amreli,Kundla- Savar,Goradka,21.228019,71.40808,2020,7.7,1324.0,0,234.0,97.0,135.0,530.0,104.0,66.0,86.0,0.64,0.23,887.0000000000001,Moderate
W210600071350001,40,Gujarat,Amreli,Rajula,Mandal,21.099438,71.57929,2020,7.9,1976.0,0,376.0,101.0,123.0,459.99999999999994,68.0,71.0,268.0,3.9,0.59,1324.0,Moderate
W212300071280001,41,Gujarat,Amreli,Kundla- Savar,Piyava,21.379547,71.460227,2020,8.2,1260.0,0,78.0,20.0,33.0,220.0,28.0,36.0,220.0,0.37,0.39,844.0000000000001,Excellent
W224249073073601,42,Gujarat,Anand,Umreth,Parvata,22.69103,73.08475,2020,8.3,1148.0,36,71.0,76.0,6.9,420.0,40.0,78.0,96.0,1.9,0.9300000000000002,769.0,Good
W222120072535001,43,Gujarat,Anand,Borsad,Bhadran,22.38454,72.90141,2020,7.9,635.0,0,35.0,20.0,0.33,270.0,64.0,27.0,32.0,1.3,0.28,425.0,Excellent
W222045072500001,44,Gujarat,Anand,Borsad,Ras,22.35408,72.83599,2020,8.1,1442.0,0,149.0,25.0,16.0,160.0,28.0,22.0,284.0,8.5,4.5,966.0,Excellent
W221630072460001,45,Gujarat,Anand,Cambay,Dali,22.28326,72.76283,2020,8.2,3721.0,0,808.0,154.00000000000003,12.0,550.0,80.0,85.0,605.0,21.0,3.4,2493.0,Poor
W205212071030401,46,Gujarat,Anand,Cambay,Kansari,22.34061,72.65247,2020,8.2,4565.0,0,1035.0,262.0,46.0,590.0,88.00000000000001,90.0,784.0,10.0,1.6,3059.0,Poor
W222515072474001,47,Gujarat,Anand,Petlad,Dharmaj,22.42085,72.78762,2020,9.2,2488.0,180,262.0,154.00000000000003,79.0,210.0,12.0,44.0,498.00000000000006,0.13,2.2,1667.0,Moderate
W223230072490001,48,Gujarat,Anand,Petlad,Bandhani,22.53747,72.81231,2020,8.5,1834.0,36,106.0,38.0,28.0,130.0,8.0,27.0,408.00000000000006,0.56,2.3,1229.0,Good
W234010073102501,49,Gujarat,Aravalli,Bhiloda,Punasan,23.664824,73.171211,2020,7.9,810.0,0,64.0,90.00000000000001,36.0,250.0,72.0,17.0,77.0,0.48999999999999994,1.7500000000000002,543.0000000000001,Excellent
W234110073220001,50,Gujarat,Aravalli,Bhiloda,Shamlaji,23.682976,73.368317,2020,8.0,501.0,0,50.0,15.0,3.0,110.0,36.0,4.9,70.0,0.8499999999999999,0.51,336.0,Excellent
W232911073235501,51,Gujarat,Aravalli,Modasa,Seenawad,23.476337,73.395622,2020,7.4,1427.0,0,227.0,100.0,109.0,500.0,144.0,34.0,97.0,11.5,0.46,956.0000000000001,Good
W232430073273001,52,Gujarat,Aravalli,Malpur,Hamirpur,23.406389,73.460693,2020,7.5,1509.0,0,256.0,132.0,85.0,480.0,144.0,29.0,125.0,0.99,0.63,1011.0,Moderate
W232041073275201,53,Gujarat,Aravalli,Malpur,Malpur_1,23.371466,73.455574,2020,7.6,807.0,0,64.0,11.0,106.00000000000001,350.0,76.0,39.0,26.0,0.42,0.72,541.0,Good
W231030073201501,54,Gujarat,Aravalli,Bayad,Sathamba,23.173384,73.330353,2020,7.9,918.0,0,43.0,90.00000000000001,18.0,330.0,56.0,46.0,57.99999999999999,1.6000000000000003,0.74,615.0000000000001,Excellent
W230730073123001,55,Gujarat,Aravalli,Bayad,Boral,23.129101,73.215118,2020,7.7,3142.0,0,824.0,77.00000000000001,125.0,820.0,304.0,15.0,398.0,1.1,0.49,2105.0,Poor
W232000073180001,56,Gujarat,Aravalli,Dhansura,Karanpur,23.332365,73.326927,2020,7.8,682.0,0,99.0,90.00000000000001,38.0,220.0,56.0,19.0,60.0,0.4000000000000001,0.72,457.0,Excellent
W232100073120001,57,Gujarat,Aravalli,Dhansura,Dhansura,23.347195,73.19944,2020,7.8,1350.0,0,156.0,84.99999999999999,74.0,520.0,168.0,24.0,69.0,0.55,0.47,905.0000000000001,Moderate
W242420072383001,58,Gujarat,Banaskantha,Amirgadh,Amirgadh,24.40092,72.647685,2020,7.0,3275.0,0,709.0,116.0,125.0,971.0,140.0,151.0,330.0,3.1,0.78,2194.0,Poor
W243145071323001,59,Gujarat,Banaskantha,Tharad,Bharol1,24.528819,71.538582,2020,7.1,825.0,0,78.0,17.0,5.3,300.0,76.0,27.0,40.0,52.0,0.64,553.0,Good
W241120072453801,60,Gujarat,Banaskantha,Dantiwada,Dantiwada,24.315154,72.325611,2020,7.0,620.0,0,50.0,17.0,30.0,270.0,80.0,17.0,33.0,1.1,0.42,415.0,Good
W241750072565001,61,Gujarat,Banaskantha,Data,Ganapipli,24.293518,72.946728,2020,7.1,918.0,0,78.0,39.0,33.0,330.0,76.0,34.0,81.0,2.0,2.1,615.0000000000001,Good
W242610072215501,62,Gujarat,Banaskantha,Dantiwada,Gangodra,24.439293,72.364594,2020,7.1,3494.0,0,709.0,144.0,0.96,861.0,204.0,85.0,335.00000000000006,19.0,3.5000000000000004,2341.0,Poor
W242045072321501,63,Gujarat,Banaskantha,Amirgadh,Iqbalgarh,24.344959,72.546526,2020,7.4,810.0,0,57.0,23.0,54.0,330.0,76.0,34.0,45.0,1.0,0.58,543.0000000000001,Good
W242915072211001,64,Gujarat,Banaskantha,Dantiwada,Jhat,24.486668,72.351128,2020,7.7,2000.0,0,355.0,137.0,0.24,180.0,28.0,27.0,375.0,4.2,1.6,1340.0,Good
W243930071460001,65,Gujarat,Banaskantha,Tharad,Khoda,24.656703,71.770809,2020,7.7,1575.0,0,177.0,107.0,22.0,130.0,20.0,19.0,320.0,13.0,1.9,1055.0,Good
W241000072434001,66,Gujarat,Banaskantha,Data,Mohabbat gadh,24.155737,72.704379,2020,7.2,1488.0,0,262.0,68.0,73.0,480.0,156.0,22.0,110.0,3.6,1.3,997.0,Moderate
W241140072260001,67,Gujarat,Banaskantha,Palanpur2,Palanpur2,24.19947,72.438385,2020,7.5,1579.0,0,248.0,67.0,102.99999999999999,380.0,76.0,46.0,210.0,0.7,0.8,1058.0,Moderate
W241030072444501,68,Gujarat,Banaskantha,Data,Ratanpur2,24.178544,72.748301,2020,7.1,1480.0,0,233.97,93.0,155.0,560.0,188.0,22.0,95.00000000000001,2.5,0.39,992.0,Moderate
W242405072174501,69,Gujarat,Banaskantha,Dantiwada,Sodapur,24.402684,72.296812,2020,7.5,915.0,0,78.0,38.0,19.0,160.0,32.0,19.0,158.0,2.8,2.2,613.0000000000001,Excellent
W220107072454701,70,Gujarat,Bharuch,Jambusar,Kalak1,22.02898,72.764289,2020,7.0,835.0,0,64.0,24.0,15.0,250.0,80.0,12.0,60.0,36.0,1.5,559.0,Good
W215930072403001,71,Gujarat,Bharuch,Jambusar,Tankari,21.988148,72.669387,2020,7.9,4492.0,0,908.0,227.0,13.0,891.0,96.0,158.0,544.0,113.0,0.66,3010.0,Poor
W220137072381001,72,Gujarat,Bharuch,Jambusar,Sindhav,22.030494,72.610604,2020,8.0,567.0,0,35.0,18.0,1.4000000000000001,140.0,32.0,15.0,66.0,14.0,0.34,380.0,Excellent
W220736072401101,73,Gujarat,Bharuch,Jambusar,Chhindra,22.101552,72.5953,2020,7.8,850.0,0,64.0,31.000000000000004,21.0,270.0,64.0,27.0,59.0,55.0,0.42,570.0000000000001,Excellent
W221105072355001,74,Gujarat,Bharuch,Jambusar,Dahegam,22.18782,72.591482,2020,7.8,1644.0,0,213.0,84.99999999999999,61.0,500.0,96.0,63.00000000000001,133.0,49.0,0.19,1101.0,Moderate
W221137072382201,75,Gujarat,Bharuch,Jambusar,Kavi,22.195247,72.63669,2020,8.2,2962.0,0,312.0,156.99999999999997,121.0,280.0,40.0,44.0,190.00000000000003,510.0,0.39,1985.0,Moderate
W220930072453001,76,Gujarat,Bharuch,Jambusar,Sarod,22.167157,72.741028,2020,8.0,735.0,0,85.0,17.0,7.199999999999999,260.0,48.0,34.0,55.0,16.0,0.45,491.99999999999994,Excellent
W215500072473001,77,Gujarat,Bharuch,Amod,Roja Tankaria,21.911477,72.788385,2020,7.6,1739.0,0,326.0,34.0,5.8,530.0,132.0,49.0,131.0,46.0,0.36,1165.0,Moderate
W214100072490001,78,Gujarat,Bharuch,Bharuch,Kaswa,21.68166,72.815421,2020,7.9,450.0,0,35.0,13.0,4.7,160.0,44.00000000000001,12.0,37.0,3.3999999999999995,0.45,302.0,Excellent
W214228072495001,79,Gujarat,Bharuch,Bharuch,Navetha,21.701431,72.798201,2020,7.8,695.0,0,92.0,2.1,2.5,270.0,64.0,27.0,34.0,23.0,0.32,466.0,Excellent
W214200073001501,80,Gujarat,Bharuch,Bharuch,Bharuch,21.713126,73.000414,2020,7.8,2416.0,0,347.0,129.0,1.2,711.0,144.0,85.0,206.0,5.3,0.31,1619.0,Poor
W213700072552501,81,Gujarat,Bharuch,Ankleshwar,Sajod,21.444511,72.818195,2020,8.6,2035.0,72,191.0,58.0,11.0,190.0,16.0,36.0,400.0,2.8,3.2,1363.0,Good
W213530072493001,82,Gujarat,Bharuch,Hansot,Utraj,21.585656,72.82359,2020,7.9,475.0,0,28.0,17.0,2.8000000000000003,160.0,48.0,10.0,35.0,0.69,0.45,318.0,Excellent
W214522070371001,83,Gujarat,Bharuch,Hansot,Jetpur,21.495685,72.704826,2020,7.7,1750.0,0,347.0,67.0,11.0,369.99999999999994,96.0,32.0,240.0,36.0,0.86,1173.0,Moderate
W212822072483501,84,Gujarat,Bharuch,Hansot,Sahol,21.614072,72.910497,2020,7.6,5499.0,0,1390.0,360.00000000000006,298.0,1781.0,521.0,117.0,390.0,3.1,0.68,3684.0,Worst
W213115072491501,85,Gujarat,Bharuch,Hansot,Raymal,21.518961,72.819565,2020,7.9,3069.0,0,752.0,69.0,5.7,600.0,76.0,100.0,340.0,14.0,0.61,2056.0,Poor
W213320072531501,86,Gujarat,Bharuch,Ankleshwar,Motwan,21.55401,72.882616,2020,8.0,3445.0,0,794.0,287.0,3.3,600.0,124.0,71.0,601.9999999999999,12.0,0.72,2308.0,Poor
W213215072583001,87,Gujarat,Bharuch,Ankleshwar,Panoli,21.536823,72.9751,2020,7.9,2502.0,0,447.0,229.0,28.999999999999996,260.0,40.0,39.0,495.0,0.75,1.6,1676.0,Good
W213450073040501,88,Gujarat,Bharuch,Valia,Kondh,21.577471,73.075975,2020,7.8,847.0,0,71.0,58.0,20.0,200.0,48.0,19.0,97.0,6.3,0.99,567.0,Excellent
W220430071533001,89,Gujarat,Bhavnagar,Vallabhipur,Panvi1,22.070297,71.891905,2020,8.2,1798.0,0,106.0,52.0,2.9,100.0,16.0,15.0,408.00000000000006,4.6,3.8999999999999995,1205.0,Good
W205400071120001,90,Gujarat,Bhavnagar,Umrala,Timbi,21.822818,71.753465,2020,7.2,388.0,0,28.0,21.0,0.61,120.0,32.0,10.0,40.0,1.6999999999999997,0.45,260.0,Excellent
W211150071330001,91,Gujarat,Bhavnagar,Mahuva,Motivadal,21.191504,71.549098,2020,8.2,1273.0,0,170.0,81.0,28.0,510.0,92.0,68.0,110.0,9.2,0.29,853.0,Moderate
W210815071393001,92,Gujarat,Bhavnagar,Mahuva,Dudhala,21.140915,71.651062,2020,8.2,1873.0,0,362.0,99.0,71.0,369.99999999999994,44.00000000000001,63.232,287.0,6.7,0.5,1255.0,Moderate
W255955075410001,93,Gujarat,Bhavnagar,Mahuva,Mahuva,21.099956,71.747011,2020,8.2,4600.0,0,1014.0,190.0,68.0,210.0,24.0,36.48,1007.0,1.9,0.8700000000000001,3082.0,Moderate
W211128071554401,94,Gujarat,Bhavnagar,Mahuva,Bora,21.16294,71.872592,2020,8.6,1566.0,72,78.0,54.0,55.0,70.0,16.0,7.295999999999999,364.0,1.6999999999999997,2.0,1049.0,Moderate
W211315071570001,95,Gujarat,Bhavnagar,Talaja,Datha,21.213852,71.950052,2020,8.1,1228.0,0,213.0,51.0,7.299999999999999,130.0,28.0,14.591999999999999,238.0,6.7,1.3,823.0000000000001,Excellent
W211250071530001,96,Gujarat,Bhavnagar,Mahuva,Longadi,21.213247,71.886063,2020,8.1,668.0,0,64.0,31.000000000000004,4.5,150.0,36.0,14.591999999999999,85.0,27.0,0.57,448.0,Excellent
W211730071580001,97,Gujarat,Bhavnagar,Talaja,Pasvi,21.293417,71.966945,2020,7.8,805.0,0,64.0,46.0,30.999999999999996,330.0,60.0,43.776,50.0,5.9,0.3,539.0000000000001,Excellent
W212246071585001,98,Gujarat,Bhavnagar,Talaja,Kundheli,21.394341,71.963773,2020,7.9,1203.0,0,241.0,83.0,32.0,400.0,80.0,48.64,105.0,0.9,0.34,806.0000000000001,Good
W212200072010001,99,Gujarat,Bhavnagar,Talaja,Talaja2,21.365747,72.020761,2020,8.1,1240.0,0,142.0,61.0,94.0,490.0,92.0,63.00000000000001,89.0,0.56,0.51,831.0000000000001,Moderate
W212530072054501,100,Gujarat,Bhavnagar,Talaja,Trapaj,21.424365,72.099832,2020,7.0,1518.0,0,163.0,160.0,185.0,670.9999999999999,176.00000000000003,56.00000000000001,57.0,0.47,0.31,1017.0,Poor
W213405072115301,101,Gujarat,Bhavnagar,Talaja,Vavdi,21.529157,72.148943,2020,7.4,1010.0,0,78.0,110.0,70.0,400.0,52.0,66.0,65.0,0.99,0.36,677.0000000000001,Good
W214046072143901,102,Gujarat,Bhavnagar,Bhavnagar,Bhumbhali,21.684484,72.234347,2020,8.1,4605.0,0,858.0,637.0,7.700000000000001,560.0,80.0,88.0,820.0,17.0,0.63,3085.0,Poor
W214600072090001,103,Gujarat,Bhavnagar,Bhavnagar,Bhavnagar1,21.773634,72.145504,2020,7.8,1268.0,0,184.0,74.0,38.0,250.0,60.0,24.0,208.0,0.77,0.38,850.0000000000001,Excellent
W213120071502001,104,Gujarat,Bhavnagar,Palitana,Palitana2,21.518444,71.832326,2020,7.2,950.0,0,113.0,51.0,10.0,369.99999999999994,92.0,34.0,57.0,6.22,0.26,637.0,Good
W212530071544501,105,Gujarat,Bhavnagar,Palitana,Sajnasar,21.428723,71.914439,2020,7.8,895.0,0,78.0,48.99999999999999,27.0,330.0,76.0,34.0,65.0,3.1,0.42,600.0000000000001,Good
W212837071482201,106,Gujarat,Bhavnagar,Palitana,Vadal,21.447377,71.853459,2020,7.8,1055.0,0,142.0,52.0,100.0,410.0,72.0,56.00000000000001,80.0,0.48,0.32,707.0,Good
W220105071420001,107,Gujarat,Bhavnagar,Gadhada,Ningala,22.019153,71.702401,2020,8.1,598.0,0,57.0,32.0,8.4,90.0,16.0,12.0,105.0,0.6700000000000002,0.45,401.0,Excellent
W214800071303001,108,Gujarat,Bhavnagar,Gadhada,Dhasa,21.802794,71.512114,2020,8.2,861.0,0,92.0,48.0,39.0,270.0,68.0,24.0,94.0,0.32,0.33,577.0000000000001,Excellent
W213235071335501,109,Gujarat,Bhavnagar,Gariadhar,Gariyadhar,21.54434,71.563631,2020,8.2,1523.0,0,319.0,142.0,94.0,430.0,60.0,68.0,190.00000000000003,0.46,0.45,1020.0000000000001,Moderate
W213300071431501,110,Gujarat,Bhavnagar,Palitana,Panchpipla,21.544559,71.724855,2020,8.1,1156.0,0,170.0,73.0,26.0,300.0,40.0,49.0,157.0,0.20000000000000004,0.55,775.0,Excellent
W213815071420001,111,Gujarat,Bhavnagar,Palitana,Khijadiya,21.624198,71.710835,2020,8.2,2267.0,0,432.0,108.0,23.0,280.0,40.0,44.0,390.0,0.16,1.28,1519.0,Good
W215800071344501,112,Gujarat,Bhavnagar,Gadhada,Gadhada2,21.964343,71.578697,2020,8.1,814.0,0,78.0,32.0,10.0,290.0,80.0,22.0,69.0,7.97,0.31,545.0000000000001,Good
W220330071380001,113,Gujarat,Bhavnagar,Gadhada,Tatam,22.065693,71.629663,2020,8.1,5062.0,0,1283.0,288.0,365.0,2022.0,289.0,316.0,322.0,1.5200000000000002,0.48000000000000004,3392.0,Worst
W221345071361501,114,Gujarat,Bhavnagar,Botad,Tardhera,22.227122,71.607596,2020,8.2,1812.0,0,319.0,99.0,234.0,661.0,115.99999999999999,90.0,114.0,1.04,0.42,1214.0,Poor
W182720076052901,115,Gujarat,Chhota Udaipur,Sankheda,Govindpur,22.21554,73.73995,2020,8.0,6995.0,0,2028.0,488.0,20.0,1591.0,148.29599999999996,297.0,1000.0,5.8,1.9,4687.0,Poor
W221515073383001,116,Gujarat,Chhota Udaipur,Sankheda,Pitha,22.26467,73.65013,2020,8.0,865.0,0,113.0,18.0,47.0,350.0,52.104,54.0,57.0,1.9,0.9,580.0,Good
W215845073563001,117,Gujarat,Chhota Udaipur,Nasvadi,Kaprali,21.97604,73.96454,2020,7.8,632.0,0,28.0,22.0,54.0,270.0,68.0,24.0,36.0,1.5,0.67,423.0,Good
W220215073531501,118,Gujarat,Chhota Udaipur,Nasvadi,Sengpur,22.04427,73.88792,2020,7.7,541.0,0,28.0,14.0,22.0,240.0,60.0,22.0,27.0,0.3,0.57,362.0,Excellent
W221200073540001,119,Gujarat,Chhota Udaipur,Jetpur Pavi,Bhindol,22.20112,73.89711,2020,8.2,1750.0,0,92.0,26.0,3.8999999999999995,350.0,28.0,68.0,285.0,0.77,4.0,1173.0,Good
W221115073591501,120,Gujarat,Chhota Udaipur,Kavant,Chavaria,22.16959,74.00017,2020,7.9,1449.0,0,199.0,55.0,101.0,410.0,64.0,61.0,178.0,2.6,4.05,970.9999999999999,Good
W222200074123001,121,Gujarat,Chhota Udaipur,Chhota Udaipur,Ferkuva,22.36378,74.21427,2020,7.6,642.0,0,71.0,23.0,37.0,300.0,88.00000000000001,19.456,17.0,3.3999999999999995,0.45,430.0,Good
W223100073563001,122,Gujarat,Chhota Udaipur,Chhota Udaipur,Kevadi,22.52246,73.93426,2020,7.5,518.0,0,43.0,21.0,9.3,190.0,60.0,9.728,38.99999999999999,0.22,0.9300000000000002,347.0,Excellent
W222030073500001,123,Gujarat,Chhota Udaipur,Jetpur Pavi,Pavi,22.3406,73.83452,2020,8.0,2007.0,0,376.0,132.0,12.0,480.0,128.0,38.912,258.0,10.0,0.95,1345.0,Moderate
W225400074030001,124,Gujarat,Dohad,Limkheda,Wadia,22.893669,74.04171,2020,8.1,2323.0,0,483.0,185.0,65.0,800.0,208.0,68.0,160.0,10.0,1.7,1556.0,Poor
W224200073550001,125,Gujarat,Dohad,Devgad Baria,Devgadh bariya,22.699751,73.916801,2020,8.2,918.0,0,142.0,67.0,16.0,210.0,40.0,27.0,119.0,3.3,0.9600000000000001,615.0000000000001,Excellent
W224215073501501,126,Gujarat,Dohad,Devgad Baria,Khandania,22.604332,73.89665,2020,7.9,699.0,0,28.0,20.0,24.0,210.0,60.0,15.0,57.0,1.5,1.0,468.0,Excellent
W223615074021501,127,Gujarat,Dohad,Dhanpur,Tokarba,22.596748,74.0284,2020,8.0,981.0,0,107.0,37.0,4.0,250.0,84.0,10.0,112.0,2.57,1.0,657.0000000000001,Good
W223450074065001,128,Gujarat,Dohad,Dhanpur,Kanjetha,22.579945,74.10946,2020,8.1,753.0,0,43.0,2.0,9.4,210.0,68.0,10.0,77.0,3.0,0.9699999999999999,505.0,Excellent
W223800074061501,129,Gujarat,Dohad,Dhanpur,Dhanpur,22.636005,74.098763,2020,8.0,1700.0,0,227.0,97.99999999999999,30.0,600.0,184.0,34.0,117.0,11.6,1.3,1139.0,Moderate
W224050074184501,130,Gujarat,Dohad,Garbada,Garbara,22.684877,74.31502,2020,7.9,8180.0,0,1740.0,396.0,822.0000000000001,1900.0,120.0,389.0,1079.0,28.5,6.8,5481.0,Worst
W224345074183001,131,Gujarat,Dohad,Garbada,Panchwada,22.728977,74.30539,2020,8.2,907.0,0,64.0,24.0,24.0,350.0,16.0,75.0,48.0,3.69,1.7599999999999998,608.0000000000001,Good
W224800074163001,132,Gujarat,Dohad,Dahod,Varamkheda,22.775204,74.28864,2020,8.1,580.0,0,50.0,11.0,30.0,240.0,28.0,41.0,24.0,1.54,1.0,389.0,Excellent
W225600074120001,133,Gujarat,Dohad,Jhalod,Mirakhedi,22.939819,74.201469,2020,8.1,863.0,0,85.0,50.0,32.0,360.0,56.0,54.0,26.0,0.8499999999999999,0.8799999999999999,578.0,Good
W224930074140001,134,Gujarat,Dohad,Dahod,Dahod2,22.831169,74.232765,2020,8.0,1771.0,0,291.0,43.0,76.0,440.0,28.0,90.0,160.0,2.27,2.3,1187.0,Moderate
W225015074040001,135,Gujarat,Dohad,Limkheda,Dadhela,22.840366,74.083466,2020,8.2,712.0,0,64.0,38.0,30.0,260.0,36.0,41.0,43.0,4.36,1.26,477.0,Excellent
W202429072513501,136,Gujarat,Daman,Daman,Warkund,20.406944,72.862778,2020,8.1,676.0,0,71.0,22.0,2.0,229.99999999999997,36.0,34.0,65.0,0.5,0.77,453.0,Excellent
W202635072510701,137,Gujarat,Daman,Daman,Dalwada,20.436389,72.847222,2020,8.1,688.0,0,64.0,34.0,15.0,270.0,48.0,36.0,50.0,3.8,0.31,461.0,Excellent
W205515073345001,138,Gujarat,Dangs-Ahwa,Dang,Kalibel,20.923056,73.581389,2020,8.1,695.0,0,50.0,69.0,3.0,290.0,64.0,32.0,45.0,0.55,0.52,466.0,Excellent
W205200073370001,139,Gujarat,Dangs-Ahwa,Dang,Sodmal,20.860833,73.620278,2020,8.3,714.0,0,36.0,27.0,11.0,290.0,40.0,46.0,48.0,0.22,0.94,478.0,Excellent
W205800073383001,140,Gujarat,Dangs-Ahwa,Dang,Bardipada,20.974722,73.629722,2020,8.2,2590.0,0,483.0,169.99999999999997,15.0,369.99999999999994,56.0,56.00000000000001,459.0,2.07,0.86,1735.0,Moderate
W205500073404501,141,Gujarat,Dangs-Ahwa,Dang,Mahal,20.915,73.668611,2020,8.2,1028.0,0,107.0,65.0,2.0,250.0,36.0,39.0,125.0,2.37,1.14,689.0000000000001,Excellent
W205520073345001,142,Gujarat,Dangs-Ahwa,Dang,Subir,20.926389,73.773889,2020,8.1,1045.0,0,64.0,43.0,3.0,380.0,72.0,49.0,85.0,2.64,0.51,700.0,Excellent
W204800073441501,143,Gujarat,Dangs-Ahwa,Dang,Ghubita,20.799722,73.731667,2020,7.7,925.0,0,149.0,30.0,1.0,290.0,76.0,24.0,67.0,7.1,0.0,620.0000000000001,Good
W204530073410001,144,Gujarat,Dangs-Ahwa,Dang,Ahwa1,20.759444,73.685278,2020,8.1,1130.0,0,128.0,60.0,18.0,350.0,40.0,61.0,101.0,20.0,0.0,757.0,Good
W204100073433001,145,Gujarat,Dangs-Ahwa,Dang,Umberpada,20.681389,73.722222,2020,8.3,1028.0,48,57.0,33.0,16.0,360.0,40.0,63.00000000000001,97.0,0.64,0.35,689.0000000000001,Good
W203800073444501,146,Gujarat,Dangs-Ahwa,Dang,Jakana,20.627778,73.741667,2020,8.1,940.0,0,107.0,45.00000000000001,12.0,450.0,112.0,41.0,31.0,0.8499999999999999,0.31,630.0,Good
W180350075534501,147,Gujarat,Dangs-Ahwa,Dang,Malegaon,20.593611,73.744444,2020,8.3,746.0,0,135.0,35.0,2.0,210.0,48.0,22.0,70.0,0.64,0.23,500.0,Excellent
W215615086434501,148,Gujarat,Dangs-Ahwa,Dang,Baripada,20.639167,73.691111,2020,7.1,1080.0,0,121.0,84.0,100.0,400.0,68.0,56.00000000000001,85.0,1.15,0.5,724.0,Good
W191914076573701,149,Gujarat,Dangs-Ahwa,Dang,Chikhli,20.659574,73.676754,2020,8.1,542.0,0,43.0,31.000000000000004,19.0,240.0,64.0,19.0,28.0,0.45,0.21999999999999997,363.0,Excellent
W204130073370001,150,Gujarat,Dangs-Ahwa,Dang,Aherdi,20.683611,73.620833,2020,8.0,685.0,0,43.0,33.0,9.0,290.0,60.0,34.0,38.0,1.92,0.39,459.0,Excellent
W204200073350001,151,Gujarat,Dangs-Ahwa,Dang,Nana pada,20.690556,73.603056,2020,8.0,706.0,0,92.0,43.0,24.0,310.0,64.0,36.0,36.0,0.25,0.27,473.0,Excellent
W204354073311401,152,Gujarat,Dangs-Ahwa,Dang,Jamalpada,20.723056,73.527778,2020,8.2,929.0,0,142.0,43.0,1.0,310.0,48.0,46.0,93.0,1.36,0.85,622.0,Excellent
W204830073331001,153,Gujarat,Dangs-Ahwa,Dang,Chinchnogaotha,20.805,73.550278,2020,7.8,1063.0,0,92.0,30.0,32.0,390.0,72.0,51.0,87.0,8.33,0.57,712.0,Good
W204815073364501,154,Gujarat,Dangs-Ahwa,Dang,Nadak khadi,20.802778,73.613056,2020,8.3,1084.0,0,135.0,60.0,60.0,369.99999999999994,40.0,66.0,97.0,0.34,0.8,726.0,Good
W204318070555901,155,Gujarat,Diu,Diu,Jalawadi,20.72414,70.930508,2020,7.9,10250.0,0,3545.0,118.0,1.1,2892.0,569.136,357.504,1082.0,52.0,0.31,6868.0,Poor
W204230070523501,156,Gujarat,Diu,Diu,Gomtimata,20.709932,70.875256,2020,8.2,3468.0,0,709.0,189.0,104.0,651.0,68.0,116.73599999999999,508.0,39.0,0.64,2324.0,Poor
W231045072503001,157,Gujarat,Gandhinagar,Dehgam,Paliya,23.1792,72.8417,2020,7.4,2460.0,0,362.0,109.0,107.0,701.0,88.00000000000001,117.0,250.0,3.5,1.4,1648.0,Poor
W215459069512901,158,Gujarat,Jamnagar,Bhanvad,Ambardi,21.9163889,69.85805556,2020,7.4,1920.0,0,298.0,84.0,86.0,515.0,80.0,77.0,204.00000000000003,2.16,1.3,1286.0,Poor
W224945070334501,159,Gujarat,Jamnagar,Jodiya,Amran1,22.8291667,70.5625,2020,6.6,478.0,0,78.0,13.0,3.0,150.0,24.0,22.0,41.0,4.79,0.62,320.0,Excellent
W215415069573001,160,Gujarat,Jamnagar,Jamjodhpur,Balwa,21.9041667,69.95833333,2020,7.3,1425.0,0,191.0,75.0,114.0,560.0,136.0,54.0,68.0,0.35999999999999993,0.25,955.0,Moderate
W222615069540002,161,Gujarat,Jamnagar,Jamnagar,Bed1,22.4375,69.9,2020,7.7,1560.0,0,301.0,14.0,5.0,690.0,179.99999999999997,58.0,37.0,1.92,0.9699999999999999,1045.0,Poor
W224100070190001,162,Gujarat,Jamnagar,Jodiya,Bedanpur,22.683333333333334,70.31666666666666,2020,7.7,8000.0,0,2057.0,572.0,72.0,1200.0,32.0,272.0,1290.0,2.32,0.6,5360.0,Poor
W220445069344501,163,Gujarat,Jamnagar,Khambhalia,Bhadthar,22.0791667,69.57916667,2020,7.6,880.0,0,113.0,48.0,15.0,290.0,48.0,41.0,68.0,1.45,0.68,590.0,Excellent
W220530069180501,164,Gujarat,Jamnagar,Kalyanpur,Bhatia,22.090833333333332,69.26888888888888,2020,7.6,2550.0,0,468.0,309.0,14.0,640.0,140.0,71.0,278.0,28.17,2.2,1709.0,Poor
W215930069144502,165,Gujarat,Jamnagar,Kalyanpur,Bhogat1,21.9916667,69.24583333,2020,7.3,2025.0,0,454.0,121.0,82.0,480.0,115.99999999999999,46.0,240.0,5.67,2.2,1357.0,Moderate
W223400070250001,166,Gujarat,Jamnagar,Dhrol,Dhrol2,22.5666667,70.41666667,2020,7.4,2110.0,0,369.0,86.0,63.0,530.0,76.0,83.0,242.0,1.56,0.32,1414.0,Poor
W221445068573001,167,Gujarat,Jamnagar,Okhamandal,Dwarka,22.2458333,68.95833333,2020,7.4,2533.0,0,574.0,78.0,24.0,655.0,80.0,110.99999999999999,264.0,29.52,0.48000000000000004,1697.0,Poor
W222700070000501,168,Gujarat,Jamnagar,Jamnagar,Gordhanpur,22.45,70.00138889,2020,7.5,1950.0,0,560.0,20.0,4.0,500.0,108.0,56.00000000000001,220.0,2.66,0.36,1307.0,Moderate
W223145070183001,169,Gujarat,Jamnagar,Jambuda,Falla,22.533611111111114,70.31416666666667,2020,7.8,1325.0,0,227.0,66.0,2.0,280.0,20.0,56.00000000000001,175.0,0.13,1.7,888.0000000000001,Good
W221615070200001,170,Gujarat,Jamnagar,Kalavad,Haripur2,22.6083333,70.2625,2020,7.2,1120.0,0,206.0,13.0,10.0,380.0,92.0,36.0,83.0,0.37,0.53,750.0,Good
W223130070121501,171,Gujarat,Jamnagar,Jamnagar,Jambuda,22.52138888888889,70.20361111111112,2020,7.1,2565.0,0,702.0,48.0,56.0,945.0,168.0,128.0,151.0,5.25,0.29,1719.0,Poor
W222730070044501,172,Gujarat,Jamnagar,Jamnagar,Jamnagar2,22.4583333,70.07916667,2020,7.4,940.0,0,92.0,48.0,3.0,260.0,44.00000000000001,36.0,96.0,0.65,0.43,630.0,Excellent
W221015069220001,173,Gujarat,Jamnagar,Kalyanpur,Juvanpur,22.1708333,69.36666667,2020,7.2,1555.0,0,248.0,81.0,57.99999999999999,510.0,60.0,88.0,125.0,1.97,0.36,1042.0,Moderate
W221300070230001,174,Gujarat,Jamnagar,Kalavad,Kalawad,22.2166667,70.38333333,2020,7.1,625.0,0,78.0,47.0,4.0,205.0,40.0,26.0,48.0,2.91,0.4,419.0,Excellent
W200307085040801,175,Gujarat,Jamnagar,Okhamandal,Kalyanpur,22.0125,69.397222,2020,7.5,1880.0,0,340.0,89.0,65.0,430.0,52.0,73.0,235.00000000000003,1.4399999999999997,3.3,1260.0,Moderate
W220100069233001,176,Gujarat,Jamnagar,Kalyanpur,Kalyanpur2,22.016666666666666,69.39166666666668,2020,7.4,1491.0,0,291.0,68.0,83.0,550.0,44.00000000000001,107.0,89.0,0.75,0.3,999.0,Moderate
W215845069360001,177,Gujarat,Jamnagar,Kalyanpur,Khirsara,21.978239,69.59974,2020,7.3,1250.0,0,269.0,60.0,46.0,225.0,76.0,9.0,183.0,0.42,0.4,838.0,Good
W221205069350001,178,Gujarat,Jamnagar,Khambhalia,Kuvadia,22.2013889,69.58333333,2020,7.3,700.0,0,43.0,28.0,33.0,245.0,62.0,22.0,47.0,0.12,0.49,469.0,Excellent
W221130069574001,179,Gujarat,Jamnagar,Lalpur,Lalpur1,22.1916667,69.96111111,2020,7.5,1170.0,0,220.0,64.0,35.0,300.0,76.0,27.0,128.0,1.56,0.38,784.0000000000001,Good
W215130069483001,180,Gujarat,Jamnagar,Bhanvad,Modpar,21.854166666666668,69.81083333333333,2020,7.2,925.0,0,142.0,38.0,33.0,229.99999999999997,60.0,19.0,105.0,3.02,0.8799999999999999,620.0000000000001,Excellent
W222200068590001,181,Gujarat,Jamnagar,Okhamandal,Mojap,22.3666667,68.98333333,2020,7.1,6211.0,0,1482.0,312.0,252.0,1660.0,344.0,195.0,660.0,9.71,0.86,4161.0,Worst
W215430069494501,182,Gujarat,Jamnagar,Bhanvad,Mota Kalawad,22.0375,69.875,2020,7.5,3010.0,0,780.0,102.0,74.0,1300.0,334.0,113.00000000000001,90.0,1.21,0.23,2016.9999999999998,Poor
W220215069523001,183,Gujarat,Jamnagar,Jamjodhpur,Motagop,21.9083333,69.82916667,2020,7.2,1055.0,0,99.0,55.0,67.0,425.0,70.0,61.0,46.0,0.12,0.28,707.0,Good
W222315069520001,184,Gujarat,Jamnagar,Jamnagar,Moti Khavdi,22.383055555555558,69.86666666666666,2020,7.1,1920.0,0,234.0,160.0,65.0,630.0000000000001,44.00000000000001,126.00000000000001,152.0,0.27,0.24000000000000002,1286.0,Moderate
W221900070155001,185,Gujarat,Jamnagar,Kalavad,Moti Matli,22.3166667,70.26388889,2020,7.5,1830.0,0,362.0,93.0,83.0,220.0,48.0,24.0,321.0,0.64,0.56,1226.0,Moderate
W221130070320001,186,Gujarat,Jamnagar,Kalavad,Nikava,22.1916667,70.53333333,2020,7.4,1160.0,0,135.0,59.0,100.0,410.0,72.0,56.00000000000001,77.99999999999999,0.17,0.38,777.0,Good
W221450069153002,187,Gujarat,Jamnagar,Kalyanpur,Pindara1,22.2472222,69.25833333,2020,7.5,1020.0,0,170.0,93.0,2.0,280.0,60.0,32.0,101.0,6.75,0.9,683.0000000000001,Excellent
W215547069293101,188,Gujarat,Jamnagar,Kalyanpur,Raval,21.9297222,69.49194444,2020,7.5,3644.0,0,922.0,113.0,44.0,1300.0,140.0,231.0,231.99999999999997,0.8499999999999999,0.18,2441.0,Poor
W222230069061502,189,Gujarat,Jamnagar,Okhamandal,Samrasar1,22.375,69.10416667,2020,7.4,1995.0,0,291.0,107.0,27.0,450.0,76.0,63.00000000000001,231.0,33.34,4.6,1337.0,Moderate
W220200070073001,190,Gujarat,Jamnagar,JAMJODHPUR,Seth Vadala,22.0333333,70.125,2020,7.2,1555.0,0,177.0,91.0,112.0,500.0,124.0,46.0,127.0,0.31,0.32,1042.0,Moderate
W220630070100001,191,Gujarat,Jamnagar,JAMJODHPUR,Sumana,22.104444444444447,70.16388888888889,2020,7.7,1300.0,0,184.0,79.0,68.0,390.0,68.0,54.0,117.0,0.64,0.84,871.0,Good
W220345070230001,192,Gujarat,Jamnagar,KALAVAD,Toda,22.066666666666666,70.38694444444445,2020,7.6,750.0,0,67.0,50.0,24.0,220.0,52.0,22.0,73.0,2.32,0.63,503.0,Excellent
W221400070070001,193,Gujarat,Jamnagar,Lalpur,Vad Panchasara,22.233333333333334,70.11666666666666,2020,7.3,1957.0,0,355.0,113.0,175.0,580.0,164.0,41.0,177.0,0.23,0.36,1311.0,Poor
W221230069300001,194,Gujarat,Jamnagar,Khambhalia,Vadtara,22.2083333,69.5,2020,7.4,1250.0,0,220.0,61.0,50.0,350.0,100.0,24.0,122.99999999999999,2.82,0.35,838.0,Good
W220900069360001,195,Gujarat,Jamnagar,Khambhalia,Vinjhalpur,22.15,69.6,2020,7.5,1070.0,0,113.0,50.0,36.0,369.99999999999994,96.0,32.0,73.0,1.03,0.45,717.0000000000001,Good
W241000077263301,196,Gujarat,Junagadh,Junagadh,Anandpur,21.410277777777775,70.51805555555555,2020,8.6,1920.0,0,504.0,65.0,64.0,680.0,100.0,104.99999999999999,125.0,1.41,0.57,1286.0,Worst
W210450070103501,197,Gujarat,Junagadh,Mangrol,Arena,21.080833333333334,70.17694444444444,2020,6.9,5558.0,0,1425.0,210.0,60.0,900.0,72.0,175.0,830.0,39.13,0.10999999999999999,3724.0,Poor
W211315070032001,198,Gujarat,Junagadh,Mangrol,Bamanwara,21.2208333,70.05555556,2020,7.4,340.0,0,46.0,18.0,5.0,130.0,24.0,17.0,17.0,1.43,0.19,228.0,Excellent
W212915070050001,199,Gujarat,Junagadh,Manavadar,Bantva,21.4875,70.08333333333333,2020,8.0,1200.0,0,113.0,40.0,12.0,110.0,20.0,15.0,226.0,0.29,3.0,804.0000000000001,Excellent
W212620070360001,200,Gujarat,Junagadh,Junagadh,Bilkha,21.4388889,70.6,2020,7.5,1560.0,0,234.0,110.0,79.0,310.0,80.0,27.0,195.0,6.24,0.47,1045.0,Moderate
W210545070130001,201,Gujarat,Junagadh,Malia,Budhecha,21.0958333,70.21666667,2020,7.0,2200.0,0,418.0,108.0,54.0,640.0,100.0,95.0,210.0,1.14,0.6,1474.0,Poor
W210230070130001,202,Gujarat,Junagadh,Malia,Chorwad,21.03222222222222,70.22472222222223,2020,7.0,4890.0,0,1206.0,92.0,77.0,1470.0,220.0,224.00000000000003,443.0,1.69,0.13,3276.0,Poor
W210850070163001,203,Gujarat,Junagadh,Malia,Galodar,21.1472222,70.275,2020,7.8,780.0,0,99.0,50.0,6.0,300.0,44.00000000000001,46.0,40.0,1.4,0.29,523.0,Excellent
W211100070091502,204,Gujarat,Junagadh,Mangrol,Goraj1,21.1833333,70.15416667,2020,7.8,1150.0,0,121.0,48.99999999999999,57.0,369.99999999999994,56.0,56.00000000000001,90.0,1.69,1.5,771.0,Good
W213100070273001,205,Gujarat,Junagadh,Junagadh,Junagadh1,21.5166667,70.45833333,2020,7.0,1207.0,0,156.0,60.0,48.0,265.0,50.0,34.0,149.0,1.98,0.28,809.0,Excellent
W211000070160001,206,Gujarat,Junagadh,Malia,Juthal,21.1666667,70.26666667,2020,7.5,820.0,0,135.0,44.0,5.0,300.0,60.0,36.0,48.0,1.6000000000000003,0.37,549.0000000000001,Excellent
W211455070033001,207,Gujarat,Junagadh,Mangrol,Kalej,21.249444444444446,70.085,2020,7.5,2150.0,0,383.0,169.0,30.0,290.0,80.0,22.0,356.0,2.46,1.51,1441.0,Moderate
W210150070143001,208,Gujarat,Junagadh,Malia,Kanek,21.0305556,70.24166667,2020,6.7,6701.0,0,1830.0,255.0,23.0,1949.9999999999998,688.0,56.00000000000001,625.0,22.29,0.15,4490.0,Poor
W211600070123001,209,Gujarat,Junagadh,Keshod,Kewarda,21.2666667,70.20833333,2020,7.5,1060.0,0,128.0,45.00000000000001,41.0,430.0,68.0,63.00000000000001,44.00000000000001,1.76,0.33,710.0000000000001,Good
W210240070113001,210,Gujarat,Junagadh,Malia,Khambalia1,21.0444444,70.19166667,2020,7.6,4830.0,0,1241.0,50.0,20.0,1035.0,242.0,104.99999999999999,635.0,10.16,0.18,3236.0,Poor
W210350070102501,211,Gujarat,Junagadh,Mangrol,Khorada1,21.0638889,70.17361111,2020,7.7,7880.0,0,2482.0,216.0,14.0,2150.0,680.0,109.0,815.0,0.39,0.21999999999999997,5280.0,Poor
W210315070123001,212,Gujarat,Junagadh,Malia,Kukaswada,21.0541667,70.20833333,2020,7.7,723.0,0,106.0,78.0,40.0,220.0,80.0,5.0,65.0,1.32,0.58,484.0,Good
W211000070040001,213,Gujarat,Junagadh,Mangrol,Lohej,21.166666666666668,70.06666666666666,2020,7.2,1256.0,0,213.0,45.00000000000001,73.0,410.0,144.0,12.0,88.00000000000001,20.19,0.36,842.0000000000001,Good
W210730070063001,214,Gujarat,Junagadh,Mangrol,Mangrol,21.130555555555556,70.11944444444444,2020,7.5,2575.0,0,596.0,97.99999999999999,44.0,530.0,120.0,56.00000000000001,325.0,36.57,0.27,1725.0,Poor
W210900070074501,215,Gujarat,Junagadh,Mangrol,Manketara,21.15,70.12805555555555,2020,7.4,1922.0,0,479.0,45.00000000000001,64.0,780.0,120.0,117.0,81.0,5.67,0.5,1288.0,Poor
W211930070260001,216,Gujarat,Junagadh,Mendarda,Mendarda1,21.325,70.44027778,2020,7.4,2750.0,0,645.0,62.00000000000001,134.0,830.0,56.0,168.0,248.0,0.83,0.43999999999999995,1843.0,Poor
W213615070340901,217,Gujarat,Junagadh,Bhesan,Patla,21.601111111111113,70.57055555555556,2020,7.6,660.0,0,71.0,31.000000000000004,12.0,260.0,96.0,5.0,31.0,0.29,0.4099999999999999,442.0,Good
W210800070145501,218,Gujarat,Junagadh,Mangrol,Seriakhan,21.1333333,70.24861111,2020,7.2,1250.0,0,177.0,67.0,64.0,430.0,100.0,44.0,82.0,14.48,0.5,838.0,Good
W210615070091001,219,Gujarat,Junagadh,Mangrol,Shardagram,21.1041667,70.15277778,2020,7.4,9450.0,0,3021.0,204.0,21.0,2650.0,280.0,474.00000000000006,975.0,8.95,0.21,6332.0,Poor
W211108070024701,220,Gujarat,Junagadh,Mangrol,Sil,21.1855556,70.04638889,2020,7.6,700.0,0,78.0,29.0,22.0,270.0,84.0,15.0,36.0,1.08,0.21999999999999997,469.0,Good
W212837071482201,221,Gujarat,Junagadh,Junagadh,Vadal,21.594641,70.505911,2020,7.8,1540.0,0,262.0,76.0,75.0,540.0,60.0,95.0,96.0,1.94,0.32,1032.0,Poor
W212815070194001,222,Gujarat,Junagadh,Vanthali,Vanthali II,21.473333333333333,70.3325,2020,7.8,2000.0,0,245.0,75.0,40.0,470.0,40.0,90.0,242.0,0.46,0.63,1340.0,Good
W212130070444501,223,Gujarat,Junagadh,Visavadar,Mandawad,21.359542,70.746497,2020,8.2,760.0,0,135.0,44.0,3.1,290.0,36.0,49.0,57.0,1.9,0.17,509.0,Excellent
W211800070420001,224,Gujarat,Junagadh,Visavadar,Prempara,21.298322,70.703344,2020,8.2,952.0,0,121.0,97.99999999999999,92.0,380.0,60.0,56.00000000000001,55.0,0.54,0.28,638.0000000000001,Good
W205407070310501,225,Gujarat,Junagadh,Veraval,Ajotha,20.900157,70.50823,2020,7.7,1563.0,0,376.0,80.0,41.0,500.0,100.0,61.0,138.0,1.6000000000000003,0.39,1047.0,Moderate
W205645070234501,226,Gujarat,Junagadh,Veraval,Govindpura2,20.955074,70.402115,2020,7.4,667.0,0,71.0,19.0,20.0,280.0,76.0,22.0,38.0,1.5,0.53,447.0,Good
W205900070261001,227,Gujarat,Junagadh,Veraval,Moraj,20.98591,70.437244,2020,7.8,1068.0,0,262.0,37.0,15.0,250.0,76.0,15.0,130.0,0.32,0.9300000000000002,716.0000000000001,Good
W210305070313001,228,Gujarat,Junagadh,Talala,Talala1,21.04905,70.526153,2020,7.7,758.0,0,78.0,26.0,14.0,270.0,56.0,32.0,67.0,1.0,0.26,508.0,Excellent
W205900070454501,229,Gujarat,Junagadh,Una,Jamvala1,20.981547,70.763637,2020,7.8,478.0,0,43.0,17.0,5.9,190.0,44.00000000000001,19.0,34.0,0.35,0.34,320.0,Excellent
W205103070400901,230,Gujarat,Junagadh,Una,Prasli,20.899416,70.639029,2020,7.8,979.0,0,142.0,51.0,42.0,250.0,68.0,19.0,91.0,35.0,1.2,656.0,Excellent
W204800070413002,231,Gujarat,Junagadh,Kodinar,Kodinar1,20.813637,70.697361,2020,7.8,2188.0,0,581.0,87.0,44.0,670.9999999999999,104.0,100.0,230.0,0.9300000000000002,0.8,1466.0,Poor
W204930071023001,232,Gujarat,Junagadh,Una,Una2,20.822393,71.041565,2020,8.1,2965.0,0,525.0,195.0,41.0,580.0,72.0,97.0,469.0,2.8,2.2,1987.0,Moderate
W205212071030401,233,Gujarat,Junagadh,Una,Kansari,20.849463,71.055315,2020,7.7,1468.0,0,199.0,71.0,132.0,440.0,104.0,44.0,152.0,1.9,0.77,983.9999999999999,Good
W205530070550001,234,Gujarat,Junagadh,Una,Girgadhada,20.925231,70.916764,2020,7.8,832.0,0,71.0,33.0,47.0,350.0,72.0,41.0,51.00000000000001,0.66,0.28,557.0000000000001,Excellent
W205730071041501,235,Gujarat,Junagadh,Una,Dhokadva,20.958549,71.068182,2020,8.2,721.0,0,50.0,23.0,3.5,310.0,44.00000000000001,49.0,40.0,2.0,0.21999999999999997,483.0,Excellent
W205115071071501,236,Gujarat,Junagadh,Una,Sametar,20.851642,71.120666,2020,8.2,396.0,0,28.0,15.0,1.6,170.0,36.0,19.0,22.000000000000004,1.6000000000000003,0.26,265.0,Excellent
W233204070262501,237,Gujarat,Kachchh,Rapar,Kuda,23.877,70.808,2020,7.4,1626.0,0,178.0,40.0,18.0,480.0,128.0,39.0,140.0,32.0,2.33,1089.0,Good
W232715070210001,238,Gujarat,Kachchh,Kharol Bhachau,Kharoi,23.454,70.35,2020,7.5,2300.0,0,497.0,166.0,1.0,870.0,168.0,109.0,152.0,6.9,0.35,1541.0,Poor
W231017069381501,239,Gujarat,Kachchh,Bhuj,Sedat,23.171,69.637,2020,7.9,782.0,0,107.0,42.0,0.0,330.0,60.0,44.0,48.0,3.6,0.19,524.0000000000001,Excellent
W231230069370001,240,Gujarat,Kachchh,Bhuj,Sukhpar,23.208,69.616,2020,7.6,10550.0,0,2982.0,2400.0,175.0,2700.0,580.0,304.0,1778.0000000000002,9.0,1.6299999999999997,7069.0,Worst
W232130069520001,241,Gujarat,Kachchh,Bhuj,Haboi,23.171,69.637,2020,7.5,1641.0,0,256.0,210.0,15.0,550.0,96.0,75.0,150.0,16.0,1.46,1099.0,Poor
W232400069533001,242,Gujarat,Kachchh,Bhuj,Lodai,23.4,69.891,2020,7.5,4680.0,0,873.0,867.0,4.0,1100.0,200.0,146.0,541.0,33.0,0.92,3136.0,Poor
W235040069435501,243,Gujarat,Kachchh,Bhuj,Khavda,23.838,69.73,2020,7.9,2632.0,0,511.0,235.00000000000003,2.0,580.0,115.99999999999999,71.0,318.00000000000006,21.0,0.55,1763.0,Poor
W232410069194501,244,Gujarat,Kachchh,Nakhtrana,Devisar,23.402,69.329,2020,7.6,5480.0,0,1456.0,351.0,16.0,1500.0,344.0,156.0,446.99999999999994,88.0,2.85,3672.0,Poor
W232747069081701,245,Gujarat,Kachchh,Nakhtrana,Ugardi,23.45888,69.1338888,2020,7.9,7730.0,0,2095.0,846.0,42.0,1370.0000000000002,228.00000000000003,195.0,1184.0,7.4,0.65,5179.0,Poor
W231521068502401,246,Gujarat,Kachchh,Abdasa,Naliya,23.266,68.833,2020,8.7,1271.0,60,142.0,55.0,12.0,80.0,16.0,10.0,300.0,2.8,1.09,852.0,Good
W231700068565001,247,Gujarat,Kachchh,Abdasa,Tera,23.283,68.947,2020,8.4,2748.0,120,469.0,255.0,49.00000000000001,260.0,44.00000000000001,36.0,586.0,6.2,6.7,1841.0,Moderate
W230230069043001,248,Gujarat,Kachchh,Abdasa,Kotaya,23.041,69.075,2020,8.3,1593.0,0,277.0,107.0,20.0,250.0,40.0,36.0,325.0,1.3,4.05,1067.0,Good
W230300069300001,249,Gujarat,Kachchh,Mandvi,Dunai,23.05,69.5,2020,8.0,1297.0,0,149.0,83.0,11.0,459.99999999999994,100.0,51.0,119.0,2.1,0.9600000000000001,869.0000000000001,Good
W225224069484201,250,Gujarat,Kachchh,Mundra,Luni,22.873,69.082,2020,8.0,2700.0,0,547.0,86.0,18.0,430.0,84.0,54.0,422.0,13.0,0.89,1809.0,Moderate
W225400069540001,251,Gujarat,Kachchh,Mundra,Bhadreshwar,22.9,69.9,2020,8.1,2345.0,0,525.0,111.00000000000001,15.0,710.0,148.0,83.0,206.0,9.3,0.35,1571.0,Poor
W230200070031501,252,Gujarat,Kachchh,Gandhidham,Shinaya,23.033,70.054,2020,8.0,7375.0,0,2016.0,508.0,2.0,1030.0,231.99999999999997,109.0,1380.0,7.0,1.16,4941.0,Poor
W230015073053001,253,Gujarat,Kheda,Kapadvanj,Kapadvanj,23.0042,73.0917,2020,7.2,1794.0,0,142.0,30.0,37.0,200.0,44.00000000000001,22.0,336.0,14.0,2.5,1202.0,Good
W225430073071501,254,Gujarat,Kheda,Kathlal,Ladvel,22.9083,73.1208,2020,7.5,1975.0,0,411.0,33.0,2.0,459.99999999999994,96.0,54.0,215.0,13.0,0.58,1323.0,Moderate
W231005073244001,255,Gujarat,Kheda,Virpur,Bar,23.1681,73.4111,2020,7.4,677.0,0,50.0,21.0,2.4,200.0,32.0,29.0,55.0,23.0,0.73,454.0,Excellent
W224700072563001,256,Gujarat,Kheda,Mahudha,Mahudha,22.7833,72.9417,2020,7.7,2580.0,0,411.0,123.0,18.0,520.0,60.0,90.0,341.0,34.0,0.75,1729.0,Moderate
W224830073033001,257,Gujarat,Kheda,Mahudha,Alina,22.8083,73.0583,2020,7.5,3129.0,0,510.0,224.99999999999997,141.0,751.0,112.0,114.0,359.0,7.0,0.9,2096.0,Poor
W224659073103601,258,Gujarat,Kheda,Tharsa,Muliyad,22.7831,73.1767,2020,7.3,6780.0,0,1773.0,440.0,24.0,1231.0,297.0,119.00000000000001,854.9999999999999,7.6,0.56,4543.0,Poor
W224545073101001,259,Gujarat,Kheda,Thasra,Dakor,22.7625,73.1694,2020,7.5,1505.0,0,177.0,36.0,5.1,330.0,44.00000000000001,54.0,182.0,8.3,1.2,1008.0000000000001,Good
W224315073113001,260,Gujarat,Kheda,Thasra,Kalesar,22.7208,73.1917,2020,7.8,1198.0,0,64.0,41.0,9.3,290.0,28.0,54.0,178.0,0.68,1.5,803.0,Good
W224415072421501,261,Gujarat,Kheda,Kheda,Kheda,22.7375,72.7042,2020,7.3,7648.0,0,2070.28,639.0000000000001,1.9,1811.0,417.0,187.0,910.9999999999999,5.0,0.58,5124.0,Poor
W223430072373001,262,Gujarat,Kheda,Matar,Shekhupura,22.575,72.625,2020,9.0,3728.0,36,518.0,258.0,1.4000000000000001,290.0,24.0,56.00000000000001,550.0,355.0,0.4,2498.0,Poor
W223808072543301,263,Gujarat,Kheda,Nadiad,Boriyavi,22.6356,72.9092,2020,7.8,1132.0,0,99.0,24.0,23.0,260.0,36.0,41.0,145.0,17.0,0.58,758.0,Excellent
W224203072583601,264,Gujarat,Kheda,Nadiad,Alindra,22.7008,72.9767,2020,7.5,625.0,0,28.0,17.0,1.4000000000000001,240.0,32.0,39.0,45.0,3.0,0.67,419.0,Excellent
W233030072110001,265,Gujarat,Mahesana,Becharaji,Asjol,23.513531,72.181456,2020,7.0,452.0,0,21.0,3.8,4.9,200.0,56.0,15.0,16.0,7.1,0.26,303.0,Excellent
W234330072230001,266,Gujarat,Mahesana,Visnagar,Bhandupara,23.724525,72.377792,2020,7.4,1588.0,0,233.97,126.0,8.4,340.0,52.0,51.0,227.0,12.0,0.59,1064.0,Good
W231715072223001,267,Gujarat,Mahesana,Kadi,Budasan,23.286363,72.374589,2020,7.2,2398.0,0,503.0,144.0,7.9,651.0,124.0,83.0,231.99999999999997,17.0,0.24000000000000002,1607.0,Poor
W233245072064501,268,Gujarat,Mahesana,Becharaji,Dharpura,23.544031,72.111664,2020,7.6,3160.0,0,326.0,193.00000000000003,1.1,350.0,52.0,54.0,610.0,41.00000000000001,2.0,2117.0,Moderate
W235030072270001,269,Gujarat,Mahesana,Unjha,Dosaj,23.843592,72.443382,2020,7.3,4070.0,0,922.0,313.0,78.0,610.0,80.0,100.0,579.0,162.0,0.61,2727.0,Worst
W235315072364501,270,Gujarat,Mahesana,Kheralu,Kheralu1,23.887104,72.608203,2020,7.2,1610.0,0,262.0,89.0,13.0,390.0,56.0,61.0,210.0,1.6000000000000003,1.6,1079.0,Moderate
W233440072172001,271,Gujarat,Mahesana,Mahesana,Maguna,23.577203,72.290409,2020,7.5,3686.0,0,709.0,245.0,7.6,1011.0,44.00000000000001,219.0,413.0,27.0,0.73,2470.0,Moderate
W233745072203001,272,Gujarat,Mahesana,Mahesana,Panchot,23.623434,72.335957,2020,7.7,1925.0,0,319.0,177.0,9.8,390.0,64.0,56.00000000000001,245.0,77.0,0.49,1290.0,Moderate
W235330072310001,273,Gujarat,Mahesana,Kheralu,Rampura1,23.884082,72.519713,2020,7.0,810.0,0,57.0,15.0,8.8,310.24799999999993,56.0,41.0,63.0,1.6999999999999997,0.51,543.0000000000001,Excellent
W234800072210001,274,Gujarat,Mahesana,Unjha,Sihi,23.799597,72.347389,2020,7.2,773.0,0,71.0,27.0,16.0,260.208,40.0,39.0,56.0,37.0,0.51,518.0000000000001,Excellent
W234530072273001,275,Gujarat,Mahesana,Visnagar,Tarabh,23.759226,72.457167,2020,7.3,1036.0,0,113.0,27.0,7.0,370.296,64.0,51.0,84.0,11.0,0.29,694.0,Good
W234600072214501,276,Gujarat,Mahesana,Unjha,Unawa,23.767,72.365529,2020,7.2,4076.0,0,709.0,373.0,170.0,840.6720000000001,80.0,156.0,545.0,102.0,0.61,2731.0,Worst
W234752072234001,277,Gujarat,Mahesana,Unjha,Unjha,23.797892,72.394611,2020,7.3,3080.0,0,461.0,277.0,137.0,550.44,56.0,100.0,459.0,80.0,1.1,2064.0,Poor
W231450072180001,278,Gujarat,Mahesana,Kadi,Vidaj,23.248101,72.297587,2020,7.4,1989.0,0,284.0,78.0,24.0,290.232,56.0,36.0,211.0,160.0,0.58,1333.0,Good
W231215073360001,279,Gujarat,Mahisagar,LUNAWADA,Limbadia peti,23.229658,73.590981,2020,7.5,902.0,0,32.0,32.0,11.0,320.0,52.0,46.0,64.0,1.4,0.99,604.0,Excellent
W232230073380001,280,Gujarat,Mahisagar,KHANPUR,Pandarvada,23.358006,73.614746,2020,7.6,700.0,0,64.0,5.0,0.67,229.99999999999997,48.0,27.0,57.99999999999999,0.66,0.59,469.0,Excellent
W232212073403801,281,Gujarat,Mahisagar,KHANPUR,Khanpur,23.287783,73.678436,2020,7.6,970.0,0,85.0,102.0,40.0,280.0,72.0,24.0,86.0,0.91,0.4099999999999999,650.0,Excellent
W231350073441001,282,Gujarat,Mahisagar,LUNAWADA,Malekpur1,23.235788,73.743942,2020,7.8,730.0,0,71.0,88.0,12.0,160.0,60.0,2.5,100.0,2.8,0.69,489.0,Excellent
W263425080451001,283,Gujarat,Mahisagar,LUNAWADA,Kantha,23.143274,73.64325,2020,7.2,346.0,0,28.0,21.0,3.5,120.0,24.0,15.0,17.0,16.0,0.51,232.0,Excellent
W230745073363001,284,Gujarat,Mahisagar,LUNAWADA,Lunawada,23.119507,73.610992,2020,7.3,1223.0,0,227.0,103.00000000000001,57.99999999999999,290.0,80.0,22.0,149.0,14.5,1.18,819.0,Good
W230110073311001,285,Gujarat,Mahisagar,LUNAWADA,Kothamba,23.014492,73.521812,2020,7.8,1307.0,0,149.0,75.0,21.0,310.0,76.0,29.0,154.0,2.79,0.84,876.0000000000001,Good
W231130073543001,286,Gujarat,Mahisagar,SANTRAMPUR,Santrampur1,23.190083,73.905556,2020,7.8,952.0,0,114.0,36.0,11.0,240.0,92.0,2.5,110.0,2.54,0.66,638.0000000000001,Good
W233200068570001,287,Gujarat,Mata no madh,Lakhpat,Mata no madh,23.533,68.95,2020,7.6,1640.0,0,312.0,204.0,19.0,430.0,124.0,29.0,225.0,10.0,0.8,1099.0,Moderate
W234923068463001,288,Gujarat,Mata no madh,Lakhpat,Lakhpat,23.823,68.775,2020,8.0,1805.0,0,369.0,254.0,1.0,610.0,115.99999999999999,78.0,199.0,6.799999999999999,0.43,1209.0,Poor
W234530068403001,289,Gujarat,Mata no madh,Lakhpat,Moti cher,23.758,68.675,2020,8.1,470.0,0,43.0,19.0,3.0,220.0,52.0,22.0,18.0,13.0,0.21999999999999997,315.0,Excellent
W224900070503001,290,Gujarat,Morvi,Morvi,Morvi,22.83,70.86,2020,8.0,305.0,0,64.0,13.0,0.35000000000000003,80.0,16.0,9.728,31.0,1.3,0.17,204.0,Excellent
W223015070451501,291,Gujarat,Morvi,Tankara,Chhatar,22.5,70.75,2020,7.7,1622.0,0,312.0,128.0,59.0,540.0,120.0,58.367999999999995,127.0,0.8499999999999999,0.72,1087.0,Poor
W224300070464501,292,Gujarat,Morvi,Tankara,Lajai,22.72,70.78,2020,7.4,3827.0,0,1020.96,213.0,131.0,1291.0,253.00000000000003,160.512,261.0,3.3,0.53,2564.0,Poor
W215130069483001,293,Gujarat,Morvi,Morvi,Modpar,22.9,70.67,2020,7.6,2730.0,0,681.0,149.0,2.5,340.0,72.0,39.0,422.0,7.4,0.35,1829.0,Good
W223015070414501,294,Gujarat,Morvi,Tankara,Neknam,22.5,70.7,2020,7.8,1338.0,0,170.0,109.0,84.0,440.0,96.0,49.0,110.0,0.92,0.45,896.0,Good
W225730070370001,295,Gujarat,Morvi,Maliya,Mota Dhansura,22.96,70.61999999999999,2020,7.7,2391.0,0,553.0,166.0,2.9,550.0,136.0,51.0,283.0,12.0,0.48000000000000004,1602.0,Poor
W212932073354901,296,Gujarat,Narmada,Dediapada,Jankh,21.502189,73.494489,2020,7.7,620.0,0,35.0,22.0,15.0,270.0,76.152,19.0,21.0,0.10000000000000002,0.45,415.0,Good
W212917073525901,297,Gujarat,Narmada,Sagbara,Umran,21.491759,73.551208,2020,7.8,473.0,0,43.0,25.0,0.21999999999999997,210.0,52.104,19.0,16.0,0.10000000000000002,0.31,317.0,Excellent
W214400073283001,298,Gujarat,Narmada,Nandod,Khota Amba,21.73021,73.47769,2020,7.9,598.0,0,21.0,20.0,12.0,290.0,80.16,22.0,15.0,1.1,0.32,401.0,Good
W215030073280001,299,Gujarat,Narmada,Nandod,Ringani,21.84154,73.46621,2020,8.0,574.0,0,14.0,7.7,1.2,270.0,56.112,32.0,21.0,0.11,0.29,385.0,Excellent
W215205073360001,300,Gujarat,Narmada,Nandod,Hirapura,21.86196,73.6023,2020,7.7,820.0,0,78.0,36.0,56.0,360.0,80.16,39.0,43.0,0.28,0.48000000000000004,549.0000000000001,Good
W215330073390001,301,Gujarat,Narmada,Nandod,Garudeshwar,21.88868,73.65362,2020,7.7,1016.0,0,71.0,39.0,13.0,440.0,100.0,46.0,54.0,4.2,0.39,681.0,Good
W205930072531001,302,Gujarat,Navsari,Jalalpore,Chinam,20.998056,72.883889,2020,7.8,550.0,0,64.0,23.0,48.0,250.0,64.0,22.0,16.0,1.25,0.25,369.0,Excellent
W205729072560601,303,Gujarat,Navsari,Navsari,Navsari 1,20.927778,72.906667,2020,7.7,312.0,0,21.0,17.0,17.0,150.0,36.0,15.0,10.0,0.23,0.29,209.0,Excellent
W205330072483001,304,Gujarat,Navsari,Jalalpore,Dandi,20.886944,72.802222,2020,7.8,798.0,0,71.0,29.0,37.0,350.0,92.0,29.0,24.0,0.78,0.29,535.0,Good
W205000072503001,305,Gujarat,Navsari,Jalalpore,Onjal,20.838056,72.844722,2020,7.8,383.0,0,21.0,11.0,10.0,180.0,48.0,15.0,15.0,0.41,0.27,257.0,Excellent
W204818073160001,306,Gujarat,Navsari,Vansda,Moti Valzar,20.797778,73.302778,2020,8.2,818.0,0,50.0,13.0,7.0,300.0,88.00000000000001,19.0,62.0,14.0,0.4,548.0,Good
W204824073133901,307,Gujarat,Navsari,Vansda,Doldha,20.7925,73.239444,2020,8.1,821.0,0,92.0,56.0,42.0,360.0,100.0,27.0,45.0,0.47,0.28,550.0000000000001,Good
W204330073090001,308,Gujarat,Navsari,Chikhli,Kaliyari,20.721111,73.144444,2020,8.1,355.0,0,28.0,16.0,6.0,140.0,32.0,15.0,24.0,0.66,0.28,238.0,Excellent
W204121073093201,309,Gujarat,Navsari,Chikhli,Rumla,20.68,73.171667,2020,8.1,432.0,0,36.0,30.0,0.0,190.0,40.0,22.0,21.0,0.44,0.43999999999999995,289.0,Excellent
W204027073140001,310,Gujarat,Navsari,Chikhali,Manav Khadak,20.679981,73.246479,2020,8.4,480.0,0,71.0,22.0,0.0,180.0,44.00000000000001,17.0,36.0,0.24,0.24000000000000002,322.0,Excellent
W225715073373001,311,Gujarat,Panchmahals,SHEHERA,Shehra,22.951515,73.627326,2020,8.3,1255.0,0,107.0,34.0,7.0,260.0,72.0,19.0,72.0,166.0,0.4099999999999999,841.0,Excellent
W224145073333001,312,Gujarat,Panchmahals,KALOL,Vejalpur,22.694733,73.559776,2020,7.8,1724.0,0,246.0,81.0,47.0,630.0000000000001,92.0,97.0,127.0,8.26,0.38,1155.0,Moderate
W230344073510301,313,Gujarat,Panchmahals,MORWA (HADAF),Suliyat,23.052418,73.859459,2020,7.3,1056.0,0,121.0,51.0,46.0,430.0,120.0,32.0,40.0,21.4,1.1,708.0000000000001,Good
W225126073491401,314,Gujarat,Panchmahals,MORWA (HADAF),Natapur,22.816063,73.801445,2020,7.7,931.0,0,92.0,41.0,41.0,280.0,85.0,16.0,80.0,2.0,1.2,624.0,Good
W224615073380001,315,Gujarat,Panchmahals,GODHRA,Godhra2,22.781477,73.656944,2020,8.1,980.0,0,78.0,60.0,75.0,260.0,80.0,15.0,105.0,0.9,1.2,657.0000000000001,Good
W224330073453001,316,Gujarat,Panchmahals,GHOGHAMBA,Ranipura,22.71726,73.744202,2020,8.0,2432.0,0,412.0,106.0,157.0,800.0,136.0,112.00000000000001,200.0,3.98,1.1,1629.0,Poor
W223245073314501,317,Gujarat,Panchmahals,HALOL,Tarkanda,22.556103,73.540909,2020,7.9,827.0,0,107.0,53.0,17.0,270.0,60.0,29.0,50.0,2.8,0.48000000000000004,554.0,Excellent
W222915073332001,318,Gujarat,Panchmahals,HALOL,Pavagadh,22.483166,73.537537,2020,8.2,900.0,0,107.0,21.0,39.0,400.0,48.0,68.0,25.0,0.29,0.35,603.0,Good
W222530073353001,319,Gujarat,Panchmahals,HALOL,Shivrajpur,22.430191,73.595795,2020,7.8,1317.0,0,270.0,40.0,12.0,480.0,80.0,68.0,80.0,0.39,0.4,882.0000000000001,Moderate
W234600072151501,320,Gujarat,Patan,Patan,Sander,23.766,72.254,2020,7.5,440.0,0,36.0,8.0,2.0,210.0,44.00000000000001,24.0,19.0,3.6,0.34,295.0,Excellent
W193744079120001,321,Gujarat,Patan,Patan,Patan,23.841,72.13,2020,7.5,2100.0,0,121.0,90.00000000000001,57.99999999999999,420.0,80.0,54.0,300.0,37.0,3.2,1407.0,Moderate
W230310086213201,322,Gujarat,Patan,Patan,Sankhari,23.779,72.162,2020,7.8,460.0,0,28.0,11.0,3.0,150.0,32.0,17.0,36.0,10.0,0.58,308.0,Excellent
W214231069423901,323,Gujarat,Porbandar,RANAVAV,Adityana,21.7086111,69.71083333,2020,7.2,1072.0,0,156.0,41.0,64.0,365.0,52.0,57.0,72.0,2.58,0.57,718.0,Good
W215500069360002,324,Gujarat,Porbandar,PORBANDAR,Adwana2,21.9166667,69.6,2020,7.3,1503.0,0,163.0,60.0,89.99999999999999,520.0,48.0,97.0,100.0,1.91,0.37,1007.0000000000001,Moderate
W214612069351701,325,Gujarat,Porbandar,PORBANDAR,Babda,21.77,69.58805556,2020,7.7,1760.0,0,262.0,75.0,18.0,420.0,40.0,78.0,202.0,2.59,0.8799999999999999,1179.0,Moderate
W214553069394001,326,Gujarat,Porbandar,PORBANDAR,Bakharla,21.7647222,69.66111111,2020,7.4,2416.0,0,433.0,139.0,82.0,560.0,24.0,122.0,276.0,41.57,1.9,1619.0,Poor
W214835069243001,327,Gujarat,Porbandar,PORBANDAR,Bhavpura,21.8097222,69.40833333,2020,7.2,4177.0,0,1241.0,93.0,104.0,1300.0,359.99999999999994,97.0,350.0,7.56,0.16,2799.0,Poor
W213932069491601,328,Gujarat,Porbandar,RANAVAV,Bhod,21.65888888888889,69.82111111111111,2020,7.1,1310.0,0,199.0,52.0,54.0,290.0,88.00000000000001,17.0,164.0,2.79,0.52,878.0,Good
W214237069362001,329,Gujarat,Porbandar,PORBANDAR,Degam,21.7102778,69.60555556,2020,8.0,2135.0,0,532.0,123.0,22.0,330.0,52.0,49.0,276.0,2.6900000000000004,2.0,1430.0,Good
W214735069481001,330,Gujarat,Porbandar,RANAVAV,Hanumangadh1,21.795485,69.802381,2020,7.2,3412.0,0,780.0,147.0,39.0,1100.0,100.0,207.0,251.0,4.25,1.2,2286.0,Poor
W212702069590001,331,Gujarat,Porbandar,KUTIYANA,Kadegi,21.4505556,69.98333333,2020,7.4,12250.0,0,3546.0,754.0,3.0,3550.0,38.0,839.9999999999999,1173.0,27.14,0.43,8208.0,Poor
W214830069360501,332,Gujarat,Porbandar,PORBANDAR,Khambodar,21.8083333,69.60138889,2020,7.6,1660.0,0,269.0,65.0,18.0,320.0,44.00000000000001,51.0,228.0,10.250000000000002,1.4,1112.0,Moderate
W214100069330001,333,Gujarat,Porbandar,PORBANDAR,Kuchhadi,21.6833333,69.55,2020,7.4,4221.0,0,752.0,177.0,27.0,650.0,100.0,97.0,603.0,105.78,1.1,2828.0,Poor
W215000069232001,334,Gujarat,Porbandar,PORBANDAR,Miyani,21.839295,69.383916,2020,7.2,2074.0,0,277.0,86.0,170.0,180.0,52.0,12.0,361.0,46.27,0.16,1390.0,Moderate
W215309069360101,335,Gujarat,Porbandar,PORBANDAR,Mojiwana,21.8858333,69.60027778,2020,7.4,1340.0,0,177.0,65.0,21.0,229.99999999999997,24.0,41.0,200.99999999999997,1.58,0.73,898.0,Excellent
W212645069473001,336,Gujarat,Porbandar,PORBANDAR,Navibandar,21.445833333333333,69.79166666666667,2020,7.1,810.0,0,121.0,44.0,39.0,210.0,40.0,27.0,80.0,7.16,0.42,543.0000000000001,Excellent
W214530069291502,337,Gujarat,Porbandar,PORBANDAR,Palkhada1,21.7583333,69.4875,2020,7.4,2950.0,0,660.0,178.0,117.0,655.0,44.00000000000001,133.0,363.00000000000006,40.89,0.5,1977.0000000000002,Poor
W214100069444503,338,Gujarat,Porbandar,RANAVAV,Ranavav2,21.6833333,69.74583333,2020,7.2,1160.0,0,191.0,37.0,71.0,405.00000000000006,20.0,86.0,95.00000000000001,1.65,0.56,777.0,Good
W214313069304301,339,Gujarat,Porbandar,PORBANDAR,Ratadi,21.7202778,69.51194444,2020,7.9,2810.0,0,574.0,194.0,25.0,290.0,32.0,51.0,524.0,6.06,1.3,1883.0,Moderate
W294115075344001,340,Gujarat,Porbandar,PORBANDAR,Ratia,21.4380556,69.80611111,2020,7.2,2801.0,0,652.0,121.0,101.0,550.0,24.0,119.00000000000001,293.0,160.0,0.35,1877.0,Poor
W215649069410901,341,Gujarat,Porbandar,PORBANDAR,Simar,21.9469444,69.06916667,2020,7.4,460.0,0,50.0,33.0,104.0,160.0,24.0,24.0,30.0,2.26,0.42,308.0,Good
W220800071181501,342,Gujarat,Rajkot,Jasdan,Lalavadar,22.13,71.3,2020,7.5,656.0,0,43.0,21.0,16.0,260.0,60.12,27.0,43.0,0.75,0.67,440.0,Excellent
W221100071053001,343,Gujarat,Rajkot,Jasdan,Bhadla,22.18,71.08999999999999,2020,7.0,2040.0,0,482.0,127.0,96.0,701.0,124.248,95.0,170.0,2.2,0.45,1367.0,Poor
W222700070363001,344,Gujarat,Rajkot,Paddhari,Movaiya,22.45,70.61,2020,7.2,8752.0,0,2652.0,615.0,168.0,3353.0,573.0,467.0,690.0,0.7199999999999999,0.74,5864.0,Worst
W214030070104501,345,Gujarat,Rajkot,Upleta,Ganod,21.68,70.18,2020,7.7,6006.0,0,1432.0,694.0,27.0,821.0,128.0,122.0,1125.0,1.9,2.9,4024.0,Poor
W222300070400001,346,Gujarat,Rajkot,Paddhari,Targhari,22.38,70.67,2020,7.8,657.0,0,99.0,33.0,4.8,210.0,36.0,29.0,66.0,1.3,0.81,440.0,Excellent
W215500070445501,347,Gujarat,Rajkot,Gondal,Chordi,21.92,70.75,2020,7.5,1199.0,0,206.0,51.0,102.0,450.0,112.0,41.0,70.0,0.37,0.75,803.0,Good
W215845069360001,348,Gujarat,Rajkot,Lodhika,Khirsara,22.240000000000002,70.67500000000001,2020,7.1,1450.0,0,241.0,80.0,6.4,530.0,100.0,68.0,93.0,3.9,0.1,972.0,Moderate
W220530071030001,349,Gujarat,Rajkot,Rajkot,Halenda,22.09,71.43333333333334,2020,7.5,1767.0,0,333.0,121.0,48.0,631.0,64.0,114.0,122.0,4.8,0.46,1184.0,Moderate
W222830070330001,350,Gujarat,Rajkot,Paddhari,Khamta,22.479999999999997,70.55,2020,7.9,2246.0,0,383.0,228.0,93.00000000000001,510.0,100.0,63.00000000000001,259.0,6.1000000000000005,0.53,1505.0,Poor
W200408085211501,351,Gujarat,Rajkot,Rajkot,Ranpur,22.37,70.93,2020,7.5,2019.0,0,539.0,121.0,24.0,790.632,204.408,68.0,95.00000000000001,0.43,0.3,1353.0,Poor
W220730070460001,352,Gujarat,Rajkot,Gondal,Ribda,22.13,70.77,2020,7.4,2327.0,0,674.0,76.0,10.0,840.6720000000001,224.0,68.0,148.0,15.0,0.37,1559.0,Poor
W231434072562701,353,Gujarat,Sabarkantha,Talod,Boriya,23.26703,72.923904,2020,7.6,2784.0,0,483.0,282.0,148.0,880.0,152.0,122.0,266.0,1.2,0.67,1865.0,Worst
W232240073010001,354,Gujarat,Sabarkantha,TALOD,Harsol1,23.374619,73.01548,2020,7.8,1456.0,0,156.0,118.99999999999999,73.0,320.0,60.0,41.0,199.0,0.96,2.1,976.0000000000001,Good
W232631073032401,355,Gujarat,Sabarkantha,HIMATNAGAR,varvada,23.442856,73.057137,2020,7.8,2334.0,0,412.0,47.0,15.0,760.0,120.0,112.00000000000001,206.0,12.9,1.5,1564.0,Poor
W233906072571401,356,Gujarat,Sabarkantha,HIMATNAGAR,Virpur_1(Himmat),23.639412,72.946167,2020,7.8,593.0,0,36.0,15.0,33.0,240.0,12.0,51.0,27.0,0.39,0.81,397.0,Good
W235227072574701,357,Gujarat,Sabarkantha,IDAR,Sabalwad,23.870945,72.953377,2020,7.6,1186.0,0,121.0,128.0,76.0,369.99999999999994,108.0,24.0,117.0,1.14,2.3,795.0,Good
W235524072511201,358,Gujarat,Sabarkantha,IDAR,Chandap_DW,23.92267,72.844337,2020,7.8,1754.0,0,376.0,125.0,50.0,530.0,148.0,39.0,180.0,5.17,1.0,1175.0,Moderate
W240030073070001,359,Gujarat,Sabarkantha,KHEDBRAHMA,Silwad,24.012806,73.124138,2020,7.6,4722.0,0,1264.0,135.0,91.0,1260.0000000000002,208.0,180.0,516.0,13.98,1.2,3164.0,Poor
W240640073003001,360,Gujarat,Sabarkantha,KHEDBRAHMA,Matoda,24.111528,73.007957,2020,7.5,3071.0,0,738.0,159.0,68.0,820.0,240.0,54.0,317.0,24.3,0.64,2058.0,Poor
W242230073020001,361,Gujarat,Sabarkantha,KHEDBRAHMA,Poshina2,24.368359,73.0310439,2020,7.7,1320.0,0,128.0,110.0,42.0,450.0,108.0,44.0,113.0,3.5,1.29,884.0,Good
W235030073021501,362,Gujarat,Sabarkantha,IDAR,Idar,23.841709,73.030472,2020,8.1,1565.0,0,199.0,99.0,35.0,390.0,84.0,44.0,209.0,4.76,2.33,1049.0,Good
W233609073091601,363,Gujarat,Sabarkantha,HIMATNAGAR,Mathasuliya,23.603662,73.136597,2020,7.7,1842.0,0,284.0,186.0,185.0,450.0,152.0,17.0,203.0,0.83,0.7,1234.0,Moderate
W235751073152901,364,Gujarat,Sabarkantha,VIJAYNAGAR,Abhapur,24.001505,73.268456,2020,7.2,512.0,0,36.0,3.0,3.4,210.0,64.0,12.0,24.0,9.099999999999998,0.38,343.0,Excellent
W235455073084301,365,Gujarat,Sabarkantha,Vadoli,Kesharpura,23.346394,72.958198,2020,7.4,1337.0,0,213.0,68.0,123.0,520.0,84.0,75.0,67.0,1.6000000000000003,0.63,896.0,Moderate
W235400073071001,366,Gujarat,Sabarkantha,VADALI,Choriwad,23.896263,73.117455,2020,7.5,2004.0,0,426.0,127.0,165.0,840.0,280.0,34.0,77.0,2.1,0.6,1343.0,Poor
W234915073070001,367,Gujarat,Sabarkantha,IDAR,Revas,23.819996,73.130424,2020,7.6,1820.0,0,284.0,140.0,185.0,720.0,168.0,73.0,87.0,0.97,0.91,1219.0,Poor
W212249073001501,368,Gujarat,Surat,Mangrol,Bhatkol,21.378611,72.969722,2020,7.0,764.0,0,57.0,37.0,2.0,320.0,68.0,36.0,44.00000000000001,2.5,0.21999999999999997,512.0000000000001,Excellent
W211730072554501,369,Gujarat,Surat,Kamrej,Kathor,21.293056,72.930278,2020,8.1,972.0,0,85.0,33.0,19.0,380.0,72.0,49.0,61.0,22.0,0.26,651.0000000000001,Excellent
W211013073040701,370,Gujarat,Surat,Bardoli,Mota,21.170278,73.069444,2020,7.9,1050.0,0,92.0,61.0,1.0,369.99999999999994,80.0,41.0,98.0,0.95,0.8799999999999999,704.0000000000001,Good
W210700073060001,371,Gujarat,Surat,Bardoli,Ten-bardoli,21.115278,73.100278,2020,7.9,550.0,0,36.0,8.0,2.0,270.0,76.0,19.0,15.0,0.21,0.29,369.0,Good
W210638072501601,372,Gujarat,Surat,Chorasi,Jiav,21.114722,72.835278,2020,7.9,442.0,0,36.0,19.0,65.0,200.0,48.0,19.0,11.000000000000002,0.43,0.18,296.0,Good
W210530072433001,373,Gujarat,Surat,Chorasi,Sultanabad,21.084167,72.719167,2020,7.7,900.0,0,92.0,43.0,44.0,320.0,92.0,22.0,57.99999999999999,13.0,0.14,603.0,Good
W160900073410001,374,Gujarat,Surat,Mandvi,Kasal,21.290833,73.214444,2020,7.9,660.0,0,57.0,37.0,28.999999999999996,310.0,76.0,29.0,19.0,0.0,0.21,442.0,Good
W211727073125201,375,Gujarat,Surat,Mandvi,Nogama,21.322222,73.126944,2020,8.2,625.0,0,43.0,19.0,7.0,140.0,52.0,2.0,88.00000000000001,0.74,0.16,419.0,Excellent
W212026073055201,376,Gujarat,Surat,Mandvi,Ushker,21.340556,73.098056,2020,8.1,538.0,0,28.0,5.0,1.0,260.0,56.0,29.0,16.0,0.74,0.21999999999999997,360.0,Excellent
W204119072565801,377,Gujarat,Surat,Mahuva,Dungri,21.41,73.129167,2020,7.9,340.0,0,28.0,15.0,16.0,160.0,48.0,10.0,11.000000000000002,0.6300000000000001,0.24000000000000002,228.0,Excellent
W212453073254001,378,Gujarat,Surat,Mandvi,Katradevi,21.431111,73.420278,2020,7.9,390.0,0,21.0,18.0,8.0,180.0,52.0,12.0,12.0,0.28,0.31,261.0,Excellent
W212730073293001,379,Gujarat,Surat,Umarpada,Juna umarpada,21.45,73.491667,2020,8.0,646.0,0,43.0,24.0,9.0,310.0,68.0,34.0,18.0,0.17,0.39,433.0,Excellent
W211515073174501,380,Gujarat,Surat,Mandvi,Mandvi2,21.257222,73.300278,2020,8.0,515.0,0,43.0,15.0,27.0,240.0,60.0,22.0,13.0,0.17,0.27,345.0,Excellent
W212838074112601,381,Gujarat,Surat,Nizar,Nizar1,21.478611,74.180833,2020,8.1,865.0,0,107.0,42.0,17.0,410.0,84.0,49.0,25.0,0.25,0.36,580.0,Good
W210330073053001,382,Gujarat,Surat,Bardoli,Sarbhon,21.060278,73.088611,2020,8.0,815.0,0,78.0,29.0,18.0,360.0,92.0,32.0,27.0,0.13,0.36,546.0,Good
W210345073113001,383,Gujarat,Surat,Bardoli,Allu,21.0675,73.188056,2020,7.7,855.0,0,71.0,16.0,0.0,190.0,48.0,17.0,107.0,15.0,0.0,573.0,Excellent
W210300073160001,384,Gujarat,Surat,Valod,Valod,21.053333,73.270833,2020,8.2,2675.0,0,419.0,156.0,24.0,310.0,48.0,46.0,400.0,17.0,0.13,1792.0,Good
W210231073192401,385,Gujarat,Surat,Valod,Kelkui,21.011944,73.314167,2020,8.0,1173.0,0,85.0,58.0,8.0,330.0,72.0,36.0,104.0,65.0,0.1,786.0000000000001,Excellent
W205700073210501,386,Gujarat,Surat,Vyara,Bedchit,20.956389,73.3425,2020,8.4,995.0,48,99.0,20.0,3.0,340.0,104.0,19.0,84.0,5.75,0.23,667.0,Good
W205014073171601,387,Gujarat,Surat,Mahuva,Vaheval,20.88,73.271389,2020,8.3,1435.0,0,92.0,72.0,10.0,250.0,28.0,44.0,245.0,2.13,1.07,961.0,Excellent
W210630073234501,388,Gujarat,Surat,Vyara,Vyara1,21.105833,73.388889,2020,7.7,989.0,0,107.0,45.00000000000001,10.0,400.0,104.0,34.0,51.00000000000001,1.5,0.57,663.0,Good
W222253071210301,389,Gujarat,Surendranagar,Sayla,Dhandhalpur 1,22.38,71.35,2020,7.8,865.0,0,78.0,26.0,9.2,240.0,44.00000000000001,32.0,72.0,4.9,0.46,580.0,Excellent
W222515071063701,390,Gujarat,Surendranagar,Chotila,Moti Moladi,22.253333333333334,71.11,2020,7.6,9627.0,0,2921.0,550.0,170.0,4424.0,673.0,666.0,342.0,3.3999999999999995,0.73,6450.0,Worst
W223900071280001,391,Gujarat,Surendranagar,Muli,Muli,22.65,71.47,2020,8.0,5506.0,0,1489.0,9.8,55.0,831.0,152.0,109.0,775.0,2.8,3.6,3689.0,Poor
W230700071470001,392,Gujarat,Surendranagar,Dasada,Bajana,23.193333333333335,71.005,2020,7.9,854.0,0,77.99,69.0,2.4,200.0,64.0,10.0,89.0,4.699999999999999,0.54,572.0,Excellent
W224325071401501,393,Gujarat,Surendranagar,Wadh,Surendranagar,22.72,71.67,2020,8.0,1518.0,0,199.0,249.0,14.0,320.0,40.0,54.0,222.0,0.12,0.8,1017.0,Good
W224837071422101,394,Gujarat,Surendranagar,Wadhvan,Anindra,22.810000000000002,71.71000000000001,2020,7.4,464.0,0,21.0,39.0,3.1,150.0,48.0,7.3,30.0,5.9,0.77,311.0,Excellent
W224800071115001,395,Gujarat,Surendranagar,Muli,Sara,22.8,71.2,2020,7.4,2346.0,0,539.0,200.0,17.0,410.0,100.0,39.0,327.0,3.1,1.1,1572.0,Moderate
W225130071470001,396,Gujarat,Surendranagar,Lakhtar,Lakhtar,22.860000000000003,71.78,2020,7.6,830.0,0,71.0,39.0,2.7,220.17599999999996,64.0,15.0,89.0,9.399999999999999,2.1,556.0000000000001,Excellent
W223830071130001,397,Gujarat,Surendranagar,Chotila,Tarnetar,22.6422316,71.211525,2020,7.5,4522.0,0,1170.0,378.0,12.0,730.584,156.0,83.0,674.0,4.6,0.84,3030.0,Poor
W224000071494501,398,Gujarat,Surendranagar,Limbadi,Shiyani,22.67,71.83,2020,7.8,1920.0,0,383.0,255.0,1.0,360.288,96.0,29.0,276.0,6.400000000000001,0.36,1286.0,Moderate
W232030071440001,399,Gujarat,Surendranagar,Dasada,Visawadi,23.34,71.73,2020,7.2,4205.0,0,1262.0,163.0,13.0,1631.3000000000002,393.0,158.0,195.0,28.0,0.31,2817.0,Poor
W224400071220001,400,Gujarat,Surendranagar,Muli,Sarla,22.396666666666665,71.36999999999999,2020,7.5,2095.0,0,369.0,54.0,32.0,620.4959999999999,148.0,61.0,170.0,55.0,1.8,1404.0,Poor
W211510083554001,401,Gujarat,Surendranagar,Dasada,Dhama,23.39,71.68,2020,8.1,3350.0,0,510.0,430.0,135.0,590.472,96.0,85.0,408.00000000000006,182.00000000000003,2.4,2245.0,Worst
W220830072543001,402,Gujarat,Vadodara,Padra,Masor,22.114736,72.890491,2020,7.9,1290.0,0,35.0,12.0,2.4,80.0,12.024,12.16,290.0,1.4,2.8,864.0,Excellent
W221700073301001,403,Gujarat,Vadodra,Vaghodia,Saidal,22.2789,73.5042,2020,7.7,3063.0,0,652.0,158.0,159.0,951.0,80.16,182.4,264.0,3.0,0.85,2052.0,Poor
W221340073290001,404,Gujarat,Vadodra,Dabhoi,Amreshwar,22.22969,73.47794,2020,7.9,615.0,0,57.0,11.0,0.16,200.0,60.12,12.16,64.0,0.8900000000000001,0.51,412.0,Excellent
W221630073263001,405,Gujarat,Vadodra,Vaghodia,Patiyapura,22.27699,73.42531,2020,7.9,1530.0,0,213.0,97.0,71.0,610.0,56.112,114.304,108.99999999999999,0.7199999999999999,0.63,1025.0,Moderate
W215445073203001,406,Gujarat,Vadodra,Sinor,Sinor,21.91502,73.33725,2020,8.2,1079.0,0,64.0,40.0,44.99999999999999,450.0,40.08,85.12,67.0,0.73,0.75,723.0000000000001,Good
W220934073244501,407,Gujarat,Vadodra,Dabhoi,Vega,22.14394,73.40296,2020,8.2,1522.0,0,177.0,104.0,8.6,420.0,104.208,38.912,170.0,31.0,0.45,1020.0000000000001,Good
W222900073121001,408,Gujarat,Vadodra,Savali,Tundav,22.48166,73.19755,2020,7.9,1929.0,0,305.0,178.0,63.0,330.0,68.136,38.912,296.0,26.0,1.7,1292.0,Moderate
W224000073190001,409,Gujarat,Vadodra,Savali,Chhaliyar,22.69303,73.29065,2020,8.4,1236.0,36,64.0,19.0,33.0,120.0,20.04,17.024,254.0,0.41,2.0,828.0,Excellent
W203151073094501,410,Gujarat,Valsad,Dharampur,Dharampur 3,20.537222,73.172222,2020,7.8,497.0,0,43.0,23.0,25.0,200.0,48.0,19.0,34.0,0.28,0.28,333.0,Excellent
W203100073171501,411,Gujarat,Valsad,Dharampur,Awadha,20.519444,73.275278,2020,8.2,1396.0,0,284.0,82.0,15.0,540.0,60.0,95.0,105.0,0.22,0.21999999999999997,935.0,Moderate
W202800073093001,412,Gujarat,Valsad,Dharampur,Lakadmal,20.468056,73.151111,2020,7.2,714.0,0,71.0,31.000000000000004,4.0,280.0,20.0,56.00000000000001,50.0,5.81,5.81,478.0,Good
W205003078293901,413,Gujarat,Valsad,Kaprada,Mandwa,20.366944,73.171389,2020,7.9,560.0,0,57.0,16.0,6.0,240.0,88.00000000000001,5.0,33.0,0.42,0.42,375.0,Good
W202030073130001,414,Gujarat,Valsad,Kaprada,Kaparda,20.342222,73.219167,2020,8.3,447.0,0,36.0,19.0,6.0,200.0,44.00000000000001,22.0,20.0,1.98,0.66,299.0,Excellent
W201942073193301,415,Gujarat,Valsad,Kaprada,Chavshala,20.659444,73.676667,2020,8.0,566.0,0,64.0,31.000000000000004,6.0,210.0,52.0,19.0,40.0,0.33,0.43,379.0,Excellent
W201847073223401,416,Gujarat,Valsad,Kaprada,Fali,20.309444,73.357222,2020,8.2,432.0,0,50.0,28.0,25.0,180.0,44.00000000000001,17.0,21.0,5.210000000000001,0.26,289.0,Excellent
W202145072583001,417,Gujarat,Valsad,Pardi,Karwad,20.352778,72.956111,2020,8.1,237.0,0,21.0,21.0,25.0,90.0,32.0,2.0,17.0,0.8000000000000002,0.3,159.0,Excellent
W201300072503001,418,Gujarat,Valsad,Umbergaon,Tumb,20.217778,72.8375,2020,8.0,668.0,0,71.0,4.0,4.0,240.0,56.0,24.0,45.0,8.1,0.21999999999999997,448.0,Excellent
W201130072450001,419,Gujarat,Valsad,Umbergaon,Umargaon,20.193889,72.7475,2020,8.0,641.0,0,57.0,50.0,12.0,229.99999999999997,56.0,22.0,59.0,0.54,0.34,429.0,Excellent
W201930072503001,420,Gujarat,Valsad,Umbergaon,Kanadu,20.326389,72.836389,2020,7.6,943.0,0,114.0,58.0,24.0,400.0,80.0,49.0,57.0,0.24,0.28,632.0000000000001,Good
W202749072550501,421,Gujarat,Valsad,Pardi,Udwada,20.4636111,72.9180555,2020,8.1,820.0,0,128.0,75.0,30.0,340.0,64.0,44.0,54.0,0.48999999999999994,0.43999999999999995,549.0000000000001,Excellent
W260200075060001,422,Rajasthan,AJMER,SARWAR,AJAGARA,26.033,75.1,2020,7.2,480.0,0,28.0,57.0,2.0,150.0,32.0,17.024,41.0,4.5,0.57,312.0,Excellent
W260442074223401,423,Rajasthan,AJMER,MASOODA,Andheri Devi,26.078,74.376,2020,8.1,1240.0,0,163.0,154.00000000000003,4.1,250.0,48.0,31.616,168.0,6.3,1.32,806.0000000000001,Excellent
W262700075040001,424,Rajasthan,AJMER,ARAIN,ARIAN,26.45,75.067,2020,8.4,2700.0,24,709.0,144.0,86.0,180.0,16.0,34.048,518.0,35.0,2.78,1755.0,Moderate
W255430074120001,425,Rajasthan,AJMER,JAWAJA,BAGLIAS,25.908,74.2,2020,8.3,1680.0,120,35.0,84.99999999999999,8.5,220.0,32.0,34.048,276.0,23.0,1.09,1092.0,Good
W261245075021001,426,Rajasthan,AJMER,ARAIN,Barora,26.213,75.036,2020,8.3,1110.0,24,106.0,164.0,10.0,229.99999999999997,40.0,31.616,124.0,7.0,2.1,722.0000000000001,Excellent
W255000075140001,427,Rajasthan,AJMER,KEKRI,BOGLA,25.89,75.233,2020,8.4,500.0,24,64.0,48.99999999999999,1.3,170.0,32.0,21.888,36.0,1.6000000000000003,0.56,325.0,Excellent
W260745074554001,428,Rajasthan,AJMER,SARWAR,Goelo,26.129,74.928,2020,8.4,6720.0,36,847.0,1574.0,263.0,720.0,104.0,111.872,1212.0,11.0,2.88,4368.0,Worst
W255600074120001,429,Rajasthan,AJMER,JAWAJA,JAWAJA1,25.933,74.2,2020,8.0,5410.0,0,999.0,698.0,370.0,860.0,128.0,131.328,843.0,13.0,1.52,3517.0,Worst
W260130074393001,430,Rajasthan,AJMER,BHINAY,JHOPADIYAN,26.025,74.658,2020,8.3,2840.0,108,461.0,240.0,27.0,480.0,48.0,87.552,432.0,7.1,2.21,1846.0,Moderate
W255900075090001,431,Rajasthan,AJMER,KEKRI,KEKRI1,25.983,75.15,2020,7.6,3700.0,0,766.0,430.0,25.0,919.9999999999999,128.0,145.92,397.00000000000006,89.0,0.04,2405.0,Poor
W261400074293001,432,Rajasthan,AJMER,PEESANGAN,LAMANA,26.233,74.492,2020,8.2,630.0,0,57.0,43.0,0.1,229.99999999999997,28.0,38.912,38.0,12.0,9.45,423.0,Excellent
W255950074350001,433,Rajasthan,AJMER,MASOODA,LUDIYANA,25.997,74.583,2020,8.4,2130.0,36,277.0,172.0,13.0,130.0,20.0,19.456,426.0,9.399999999999999,2.29,1385.0,Good
W261637074302901,434,Rajasthan,AJMER,PEESANGAN,Mangaliyawas,26.277,74.508,2020,8.2,770.0,0,57.0,106.0,1.2,220.0,36.0,31.616,72.0,7.2,4.3,500.99999999999994,Excellent
W260530074304501,435,Rajasthan,AJMER,MASOODA,MASUDA1,26.092,74.513,2020,8.4,3560.0,108,284.0,492.0,27.0,260.0,40.0,38.912,696.9999999999999,4.3,4.98,2314.0,Moderate
W255633075105701,436,Rajasthan,AJMER,KEKRI,Nai Khera,25.943,75.183,2020,8.4,3570.0,108,305.0,602.0,27.0,200.0,30.0,30.399999999999995,727.0,5.0,6.06,2321.0,Moderate
W260300074170001,437,Rajasthan,AJMER,JAWAJA,NARBADKHERA,26.05,74.283,2020,8.1,1815.0,0,362.0,136.0,15.0,320.0,60.0,41.344,267.0,6.7,0.74,1180.0,Good
W254510084062001,438,Rajasthan,AJMER,PEESANGAN,NASIRABAD,26.287,74.74,2020,8.1,1510.0,0,163.0,144.0,123.0,170.0,20.0,29.183999999999997,267.0,11.0,1.7400000000000002,982.0000000000001,Good
W260600074250001,439,Rajasthan,AJMER,MASOODA,PAKHRIAWAS,26.088,74.399,2020,8.3,2660.0,60,454.0,422.0,46.0,340.0,48.0,53.504,453.00000000000006,7.1,1.56,1729.0,Moderate
W261600074500001,440,Rajasthan,AJMER,SHRINAGAR,RAMSAR2,26.267,74.858,2020,7.6,7225.0,0,1347.0,528.0,1375.0,2000.0,359.99999999999994,268.0,557.0,431.0,1.08,4696.0,Worst
W255440075023001,441,Rajasthan,AJMER,SARWAR,SANPLA,25.911,75.042,2020,8.2,1200.0,0,194.0,146.0,6.0,210.0,20.0,39.0,152.0,49.0,0.42,780.0000000000001,Excellent
W260300075000001,442,Rajasthan,AJMER,SARWAR,SARWAD,26.05,75,2020,8.3,2760.0,36,312.0,729.0,44.0,360.0,24.0,73.0,456.0,23.0,0.62,1794.0,Moderate
W262400074370001,443,Rajasthan,AJMER,PEESANGAN,TABIJI,26.363,74.617,2020,8.1,4870.0,0,652.0,834.0,24.0,515.0,84.0,74.0,879.0,8.4,0.36,3166.0,Poor
W255300074090001,444,Rajasthan,AJMER,JAWAJA,TARAGARH,25.883,74.15,2020,8.2,1100.0,0,99.0,132.0,40.0,200.0,40.0,24.0,161.0,3.8,1.09,715.0000000000001,Excellent
W272630076313001,445,Rajasthan,ALWAR,UMREN,Baran1,27.442,76.525,2020,7.8,540.0,0,35.0,8.0,12.0,190.0,44.00000000000001,19.0,40.0,2.3,0.10999999999999999,351.0,Excellent
W271230076473001,446,Rajasthan,ALWAR,RENI,GADI SWAIRAM,27.208,76.792,2020,8.4,250.0,36,21.0,11.0,1.0,100.0,20.0,12.2,13.0,4.1,0.09,163.0,Excellent
W271330076153001,447,Rajasthan,ALWAR,THANAGAZI,GHATA MORDI,27.225,76.258,2020,8.8,1630.0,96,383.0,25.0,30.0,600.0,52.0,114.0,160.0,3.5,0.4099999999999999,1060.0,Poor
W271515076504501,448,Rajasthan,ALWAR,LAXMANGARH,JHALADALA,27.254,76.832,2020,8.6,1410.0,60,191.0,57.0,1.0,200.0,12.0,41.0,256.0,6.400000000000001,1.12,917.0,Good
W271842076242801,449,Rajasthan,ALWAR,RAJGARH,Kalighati Sariska,27.312,76.408,2020,8.4,1220.0,48,135.0,21.1,13.0,240.0,20.0,46.2,190.00000000000003,2.4,0.85,793.0000000000001,Excellent
W272100076500001,450,Rajasthan,ALWAR,LAXMANGARH,LACHMANGARH,27.35,76.86,2020,8.6,700.0,60,57.0,5.76,0.5,190.0,16.0,36.0,94.0,4.3,0.75,455.0,Good
W275000076560001,451,Rajasthan,ALWAR,TIJARA,NIMLI,27.833,76.933,2020,8.4,1410.0,60,234.0,45.6,8.5,150.0,24.0,22.0,265.0,2.5,1.37,917.0,Excellent
W250600076120001,452,Rajasthan,ALWAR,RAJGARH,RAJGARH1,27.236,76.6,2020,7.8,5750.0,0,851.0,1498.0000000000002,9.0,1140.0,136.0,195.0,930.0,2.2,2.2,3738.0,Poor
W271415076240001,453,Rajasthan,ALWAR,RAJGARH,TEHLA,27.238,76.4,2020,8.4,870.0,36,78.0,115.0,2.3,210.0,20.0,39.0,112.0,8.7,0.69,566.0,Excellent
W232516074173101,454,Rajasthan,BANSWARA,BAGIDORA,Bansla,23.421,74.292,2020,8.3,690.0,0,43.0,9.5,32.0,200.0,40.0,24.0,68.0,0.0,0.42,449.0,Excellent
W233200074270001,455,Rajasthan,BANSWARA,BANSWARA,Banswara1,23.533,74.45,2020,8.0,710.0,0,43.0,14.0,34.0,210.0,48.0,22.0,70.0,1.1,0.3,462.0,Excellent
W234255074154601,456,Rajasthan,BANSWARA,GARHI,Bhimpur,23.715,74.263,2020,8.2,680.0,0,50.0,5.0,32.0,200.0,44.00000000000001,22.0,66.0,0.0,0.42,442.0,Excellent
W231330074180001,457,Rajasthan,BANSWARA,SAJJANGARH,Bhura Kua,23.225,74.31,2020,8.3,870.0,0,57.0,31.000000000000004,28.0,320.0,72.0,34.0,50.0,7.2,0.6,566.0,Excellent
W231937074214201,458,Rajasthan,BANSWARA,SAJJANGARH,Bilari,23.327,74.362,2020,7.4,1015.0,0,43.0,51.0,18.0,210.0,24.0,36.0,136.0,2.8,0.2,660.0,Excellent
W233430074070001,459,Rajasthan,BANSWARA,ARTHOONA,Borigoan,23.575,74.117,2020,8.1,650.0,0,57.0,21.0,18.0,160.0,32.0,19.0,76.0,3.3999999999999995,0.65,423.0,Excellent
W233033074230401,460,Rajasthan,BANSWARA,TALWARA,Borwat,23.509,74.384,2020,8.3,940.0,0,71.0,58.0,7.4,350.0,92.0,29.0,56.0,5.6,0.72,611.0,Good
W231846074224701,461,Rajasthan,BANSWARA,KUSHALGARH,Charakni,23.313,74.38,2020,8.3,540.0,24,21.0,42.0,8.6,229.99999999999997,60.0,19.0,8.65,17.5,0.030000000000000002,351.0,Excellent
W231020074172501,462,Rajasthan,BANSWARA,SAJJANGARH,CHOTA DUNGRA,23.172,74.29,2020,8.3,550.0,0,21.0,13.0,8.8,229.99999999999997,56.0,22.0,14.0,16.8,0.05,358.0,Excellent
W233100074430001,463,Rajasthan,BANSWARA,CHHOTISARVAN,Danpur,23.517,74.717,2020,8.3,520.0,0,28.0,26.0,19.5,90.0,28.0,5.0,80.0,1.2,0.65,338.0,Excellent
W235150074273001,464,Rajasthan,BANSWARA,GHATOL,DUNGARIA,23.864,74.458,2020,8.2,615.0,0,35.0,22.0,16.5,229.99999999999997,60.0,19.0,36.0,7.0,0.02,400.0,Excellent
W234600074151001,465,Rajasthan,BANSWARA,GHATOL,GANORA,23.767,74.253,2020,7.6,2150.0,0,333.0,276.0,130.0,459.99999999999994,96.0,54.0,250.0,63.0,0.52,1398.0,Poor
W233524074103001,466,Rajasthan,BANSWARA,GARHI,GARHI PARTAPURA,23.59,74.175,2020,7.7,1350.0,0,248.0,46.0,72.0,369.99999999999994,76.0,44.0,140.0,3.0,0.32,878.0,Good
W231234074285301,467,Rajasthan,BANSWARA,KUSHALGARH,Kalakhet_Pz,23.21,74.481,2020,8.1,700.0,0,43.0,32.0,1.3,180.0,36.0,21.888,80.0,1.6000000000000003,0.19,455.0,Excellent
W233210074370001,468,Rajasthan,BANSWARA,CHHOTISARVAN,Katumbi Dw,23.536,74.617,2020,8.2,640.0,0,170.0,42.0,0.0,50.0,12.0,4.864,124.0,0.7,1.9200000000000002,416.0,Excellent
W232800074043001,469,Rajasthan,BANSWARA,ARTHOONA,Kotra1,23.454,74.075,2020,7.8,655.0,0,28.0,17.0,22.0,210.0,60.0,14.591999999999999,54.0,2.6,1.57,426.0,Excellent
W231200074270002,470,Rajasthan,BANSWARA,KUSHALGARH,KUSALGARH,23.2,74.45,2020,7.9,910.0,0,43.0,4.0,2.4,290.0,32.0,51.072,77.99999999999999,1.0,1.55,592.0,Good
W235340074263501,471,Rajasthan,BANSWARA,GHATOL,NARWALI,23.894,74.443,2020,7.8,1140.0,0,92.0,115.0,50.0,400.0,60.0,60.79999999999999,77.99999999999999,11.8,1.2,741.0000000000001,Good
W233210074311001,472,Rajasthan,BANSWARA,BANSWARA,Padla Barora,23.536,74.519,2020,7.5,825.0,0,43.0,27.0,57.0,200.0,48.0,19.456,100.0,1.0,1.2,536.0000000000001,Good
W233053074103901,473,Rajasthan,BANSWARA,ARTHOONA,Raiyana,23.515,74.17,2020,8.1,660.0,0,64.0,58.0,30.0,200.0,36.0,26.752,60.0,5.0,0.42,429.0,Excellent
W232232074164501,474,Rajasthan,BANSWARA,BAGIDORA,RAKHO,23.368,74.279,2020,8.2,870.0,0,71.0,16.0,6.5,310.0,96.0,17.024,57.99999999999999,5.2,0.12000000000000001,566.0,Good
W233922074232301,475,Rajasthan,BANSWARA,GHATOL,SENWASA,23.656,74.39,2020,8.0,1020.0,0,99.0,75.0,42.0,350.0,60.0,48.64,75.0,1.4,0.8199999999999998,663.0,Excellent
W232900074220001,476,Rajasthan,BANSWARA,TALWARA,Sera Pada Sandoh,23.483,74.367,2020,8.1,860.0,0,64.0,19.0,6.0,360.0,100.0,26.752,32.0,5.2,0.12000000000000001,559.0,Good
W232630074220801,477,Rajasthan,BANSWARA,BANSWARA,Surwania,23.442,74.369,2020,8.1,880.0,0,57.0,28.0,25.0,330.0,56.0,46.208,52.0,6.7,0.52,572.0,Excellent
W303900076194501,478,Rajasthan,BANSWARA,TALWARA,Talwara,23.567,74.333,2020,8.2,1010.0,0,28.0,136.0,89.99999999999999,290.0,60.0,34.048,100.0,2.5,1.97,657.0000000000001,Good
W233700074170001,479,Rajasthan,BANSWARA,GARHI,Wajwana,23.617,74.283,2020,8.1,1000.0,0,35.0,165.0,30.0,300.0,56.0,38.912,92.0,2.5,2.18,650.0,Excellent
W250930076180001,480,Rajasthan,BARAN,ANTAH,ANTA1,25.158,76.3,2020,7.7,1540.0,0,64.0,352.0,22.0,510.0,76.0,78.0,125.0,5.14,0.24000000000000002,1001.0000000000001,Poor
W245315076394001,481,Rajasthan,BARAN,ATRU,ATRU1,24.858,76.661,2020,7.1,1210.0,0,92.0,204.0,12.0,240.0,56.0,24.0,166.0,12.0,0.43,774.0000000000001,Excellent
W250500076420001,482,Rajasthan,BARAN,KISHANGANJ,Banthoni,25.083,76.7,2020,8.2,320.0,0,21.0,12.0,5.0,140.0,36.0,12.0,14.0,3.31,0.12000000000000001,221.0,Excellent
W250529076473701,483,Rajasthan,BARAN,KISHANGANJ,BHANWARGARH,25.091,76.794,2020,7.7,950.0,0,71.0,168.0,24.0,260.0,40.0,39.0,114.0,10.0,0.42,618.0,Excellent
W244004076503601,484,Rajasthan,BARAN,CHHABRA,Chhabra_GWD,24.668,76.843,2020,7.9,800.0,0,50.0,138.0,57.0,280.0,60.0,32.0,133.0,2.09,0.42,520.0,Good
W242610076420001,485,Rajasthan,BARAN,CHHIPABAROD,HARNAUDA,24.436,76.7,2020,7.7,2000.0,0,156.0,595.0,39.0,950.0,168.0,129.0,43.0,0.55,0.37,1300.0,Poor
W244530076443001,486,Rajasthan,BARAN,ATRU,KANWAI,24.748,76.742,2020,8.0,1740.0,0,128.0,92.0,53.00000000000001,350.0,68.0,44.0,258.0,2.0,0.69,1170.0,Good
W251230077213001,487,Rajasthan,BARAN,SHAHBAD,Kasba Thana,25.208,77.358,2020,7.1,2240.0,0,298.0,258.0,28.999999999999996,340.0,60.0,46.208,359.0,2.16,1.18,1456.0,Moderate
W250800076540001,488,Rajasthan,BARAN,SHAHBAD,KELWARA1,25.133,76.9,2020,7.8,900.0,0,28.0,148.0,49.00000000000001,290.0,72.0,26.752,80.0,3.78,0.7,585.0,Excellent
W250630076380001,489,Rajasthan,BARAN,KISHANGANJ,KISHANGANJ1,25.108,76.65,2020,7.9,780.0,0,57.0,88.0,19.0,270.0,40.0,41.344,60.0,2.17,0.54,520.0,Excellent
W251116077062001,490,Rajasthan,BARAN,SHAHBAD,MAMONI,25.188,77.106,2020,7.6,2740.0,0,277.0,422.0,69.0,570.0,72.0,94.848,373.0,1.69,0.67,1781.0,Poor
W210730070063001,491,Rajasthan,BARAN,ANTAH,MANGROL,25.325,76.513,2020,7.5,2220.0,0,199.0,458.0,96.0,800.0,150.0,103.36,126.0,38.0,0.66,1443.0,Poor
W242900076360001,492,Rajasthan,BARAN,CHHIPABAROD,SARTHAL,24.483,76.6,2020,8.0,800.0,0,35.0,206.00000000000003,35.0,270.0,52.0,34.048,65.0,1.1,0.18,520.0,Excellent
W252800072004501,493,Rajasthan,BARMER,SINDHARI,ARNIYALI,25.467,71.968,2020,9.1,15850.0,48,3900.0,2148.0,110.0,490.0,16.0,109.43999999999998,3500.0,8.0,0.35,10303.0,Poor
W255455070523001,494,Rajasthan,BARMER,GADRAROAD,BALEWA,25.915,70.875,2020,9.1,5410.0,36,1163.0,446.99999999999994,270.0,229.99999999999997,40.0,31.616,1110.0,28.0,1.65,3673.0,Poor
W254945072153001,495,Rajasthan,BARMER,BALOTRA,BALOTRA1,25.829,72.258,2020,8.1,1900.0,0,304.0,163.0,112.0,425.0,48.0,74.176,245.0,21.6,1.36,1235.0,Moderate
W255430071143001,496,Rajasthan,BARMER,BARMER,BISALA,25.888,71.242,2020,9.1,4900.0,72,1106.0,417.0,145.0,220.0,24.0,38.912,1040.0,38.5,3.0,3185.0,Poor
W261630071182001,497,Rajasthan,BARMER,SHEO,BISUKALAN,26.241,71.278,2020,9.0,2900.0,30,837.0,40.0,44.99999999999999,170.0,16.0,31.616,600.0,8.9,2.27,1885.0,Moderate
W254445071394601,498,Rajasthan,BARMER,BARMER,CHAWA,25.746,71.663,2020,9.0,2895.0,24,588.0,245.0,189.99999999999997,280.0,32.0,48.64,540.0,14.0,1.0,1882.0,Moderate
W241140080594901,499,Rajasthan,BARMER,SAMDARI,DEVRA,25.733,72.517,2020,8.9,2990.0,24,610.0,427.0,55.0,250.0,28.0,43.776,600.0,4.9,0.17,1944.0,Poor
W260400072400001,500,Rajasthan,BARMER,KALYANPUR,DOLI,26.067,72.667,2020,7.5,355.0,0,35.0,18.0,9.0,150.0,28.0,19.456,19.0,5.7,0.35,231.0,Excellent
W254425070382001,501,Rajasthan,BARMER,GADRAROAD,GADRA ROAD,25.74,70.639,2020,8.4,3100.0,24,585.0,372.0,2.8000000000000003,180.0,28.0,26.752,670.0000000000001,8.7,4.5,2015.0000000000002,Moderate
W262018071332001,502,Rajasthan,BARMER,SHEO,GUJRO KA BERA,26.338,71.556,2020,9.0,2240.0,36,432.0,115.0,75.0,170.0,16.0,31.616,430.0,9.7,1.9200000000000002,1456.0,Moderate
W253428071235501,503,Rajasthan,BARMER,BARMER,HATHITALA,25.547,71.399,2020,8.9,5230.0,42,1503.0,74.0,150.0,280.0,16.0,58.367999999999995,1060.0,14.0,1.35,3400.0,Poor
W254300071152001,504,Rajasthan,BARMER,BARMER,JASAI,25.683,71.211,2020,8.5,1440.0,12,199.0,190.0,200.0,300.0,52.0,41.0,200.0,6.5,0.95,936.0,Good
W260939071343001,505,Rajasthan,BARMER,BAYTOO,Jhak Pz,26.161,71.575,2020,7.6,2400.0,0,432.0,313.0,32.0,280.0,32.0,48.6,420.0,12.0,1.78,1560.0,Moderate
W261535071362001,506,Rajasthan,BARMER,SHEO,KASHMIR,26.26,71.606,2020,8.7,2130.0,24,369.0,132.0,9.0,150.0,28.0,19.0,420.0,7.2,2.62,1385.0,Moderate
W260542071012201,507,Rajasthan,BARMER,SHEO,MUNGERIA,26.095,71.014,2020,9.3,2200.0,60,284.0,187.0,65.0,120.0,8.0,24.0,450.0,6.0,2.85,1430.0,Moderate
W255900071070001,508,Rajasthan,BARMER,BARMER,NAND,25.972,71.145,2020,8.7,5200.0,78,1446.0,233.0,310.0,400.0,40.0,73.0,1050.0,12.0,1.58,3380.0,Poor
W253630071170001,509,Rajasthan,BARMER,CHOHTAN,NIMRI (RADEWA),25.603,71.283,2020,7.3,4700.0,0,1219.0,295.0,179.99999999999997,1000.0,192.0,126.00000000000001,610.0,7.0,0.6,3055.0,Worst
W260145071464501,510,Rajasthan,BARMER,BAYTOO,PANAVADA,25.994,71.757,2020,8.7,12760.0,30,3510.0,930.0,340.0,800.0,80.0,146.0,2400.0,325.0,3.8999999999999995,8294.0,Worst
W255930070100001,511,Rajasthan,BARMER,GADRAROAD,PANCHLA,25.992,70.167,2020,8.1,13180.0,0,4006.0,1077.0,16.0,1150.0,200.0,158.0,2900.0,29.0,1.8,8567.0,Poor
W255930070100001,512,Rajasthan,BARMER,GADRAROAD,PANCHLA,25.992,70.167,2020,7.9,14280.0,0,4382.0,1085.0,18.0,1220.0,192.0,180.0,2900.0,30.0,2.25,9282.0,Poor
W254040071132501,513,Rajasthan,BARMER,BARMER,PATRASAR,25.678,71.224,2020,8.5,910.0,24,135.0,50.0,40.0,160.0,28.0,22.0,135.0,2.8,0.62,592.0,Excellent
W250720071352001,514,Rajasthan,BARMER,DHORIMANNA,PIPARLI GAON,25.122,71.589,2020,8.8,1030.0,18,170.0,62.00000000000001,32.0,200.0,24.0,34.0,140.0,9.2,1.62,670.0000000000001,Good
W254350071371501,515,Rajasthan,BARMER,BARMER,RAWATSAR1,25.684,71.621,2020,8.9,1385.0,18,206.0,133.0,89.99999999999999,190.0,28.0,29.183999999999997,226.0,10.0,0.68,900.0000000000001,Good
W255045070562001,516,Rajasthan,BARMER,GADRAROAD,REDANA,25.846,70.99,2020,9.1,3100.0,48,610.0,265.0,200.0,270.0,8.0,60.79999999999999,590.0,7.2,1.0,2015.0000000000002,Poor
W252900071240001,517,Rajasthan,BARMER,BARMER,SANAWARA,25.48,71.4,2020,8.7,6670.0,30,2056.0,208.0,94.99999999999999,700.0,120.0,97.28,1240.0,9.6,1.0,4336.0,Worst
W253545071140001,518,Rajasthan,BARMER,CHOHTAN,SANLOR,25.586,71.233,2020,8.3,2760.0,0,617.0,272.0,105.0,290.0,56.0,36.48,480.0,28.0,0.4,1794.0,Moderate
W255951071580301,519,Rajasthan,BARMER,GIRA,Santara,25.998,71.968,2020,8.4,3400.0,24,688.0,182.0,179.99999999999997,300.0,52.0,41.344,520.0,225.0,5.0,2210.0,Moderate
W261200071493001,520,Rajasthan,BARMER,GIRA,SAUPADAMSINGH,26.15,71.807,2020,8.9,5800.0,42,1347.0,390.0,290.0,360.0,24.0,72.96,1150.0,10.0,4.1,3770.0,Poor
W250400071050001,521,Rajasthan,BARMER,SERWA,Sedwa,25.067,71.128,2020,8.4,3140.0,18,744.0,232.0,160.0,200.0,32.0,29.183999999999997,630.0,11.0,0.8199999999999998,2041.0000000000002,Moderate
W254630071050001,522,Rajasthan,BARMER,RAMSAR,SIHANI,25.755,71.083,2020,8.6,430.0,18,21.0,32.0,18.0,160.0,24.0,24.32,22.000000000000004,18.0,0.47,280.0,Good
W245520071090001,523,Rajasthan,BARMER,SERWA,SIHANIYA,24.922,71.15,2020,8.5,5510.0,120,1375.0,432.0,155.0,620.0,64.0,111.872,1000.0,22.0,2.0,3868.0,Poor
W253400071540001,524,Rajasthan,BARMER,SINDHARI,SINDARI,25.567,71.9,2020,8.3,415.0,0,50.0,43.0,7.0,110.0,28.0,9.728,45.0,4.0,0.42,270.0,Excellent
W252015070515501,525,Rajasthan,BARMER,CHOHTAN,SIYAGA TALA,25.338,70.865,2020,8.3,8100.0,0,2233.0,374.0,424.99999999999994,850.0,160.0,109.43999999999998,1475.0,17.0,1.8700000000000003,5525.0,Worst
W245300071130001,526,Rajasthan,BARMER,SERWA,TARLA,24.836,71.217,2020,8.8,1890.0,30,220.0,176.0,375.0,480.0,60.0,80.256,145.0,136.0,0.8199999999999998,1229.0,Moderate
W260300072213001,527,Rajasthan,BARMER,KALYANPUR,THOB,26.05,72.358,2020,8.1,2950.0,0,603.0,208.99999999999997,280.0,440.0,76.0,60.79999999999999,460.0,30.0,1.42,1918.0,Poor
W261212072291801,528,Rajasthan,BARMER,KALYANPUR,Thoombli,26.204,72.489,2020,8.2,7790.0,0,1914.0,472.0,230.0,459.99999999999994,64.0,72.96,1650.0,9.0,7.5,5064.0,Poor
W265420077224001,529,Rajasthan,BHARATPUR,BAYANA,BANDH BARETA,26.904,77.376,2020,8.0,530.0,0,28.0,8.0,1.5,180.0,44.00000000000001,17.024,41.0,1.8,0.33,345.0,Excellent
W265750077213501,530,Rajasthan,BHARATPUR,BAYANA,BAWARI BARODA,26.964,77.39,2020,8.5,690.0,60,43.0,5.0,20.0,150.0,20.0,24.32,108.99999999999999,0.9,2.34,449.0,Excellent
W271300077300001,531,Rajasthan,BHARATPUR,SEWAR,Bharatpur1,27.217,77.5,2020,8.2,1100.0,0,163.0,26.0,26.0,240.0,44.00000000000001,31.616,145.0,4.3,0.53,715.0000000000001,Excellent
W265945077293002,532,Rajasthan,BHARATPUR,RUPBAS,DAHINAGAON,26.996,77.492,2020,8.2,1600.0,0,248.0,132.0,125.0,340.0,40.0,58.367999999999995,215.0,25.8,0.36,1040.0,Moderate
W273917077034801,533,Rajasthan,BHARATPUR,PAHARI,Gopalgarh,27.655,77.063,2020,7.9,10510.0,0,2942.0,1354.0,30.0,2350.0,140.0,486.3999999999999,1709.9999999999998,4.0,2.5,6832.0,Poor
W274656077133601,534,Rajasthan,BHARATPUR,KAMAN,JURAHRA,27.782,77.227,2020,8.6,3330.0,72,581.0,286.0,20.0,380.0,16.0,82.688,690.0,1.3,2.2,2165.0,Poor
W265830077381501,535,Rajasthan,BHARATPUR,RUPBAS,KHAN SURJAPUR,26.975,77.638,2020,8.7,1800.0,84,149.0,99.0,20.0,229.99999999999997,24.0,41.344,375.0,0.7,2.25,1170.0,Good
W270200077330001,536,Rajasthan,BHARATPUR,RUPBAS,KHANUA,27.033,77.55,2020,8.6,3640.0,72,808.0,156.99999999999997,26.0,420.0,32.0,82.688,680.0,2.1,2.0,2366.0,Moderate
W265700077230001,537,Rajasthan,BHARATPUR,BAYANA,Kheria Mod,26.95,77.383,2020,8.9,1020.0,60,57.0,5.0,4.7,100.0,20.0,12.16,215.0,0.5,7.000000000000001,663.0,Good
W264815077255001,538,Rajasthan,BHARATPUR,BAYANA,KOT1,26.804,77.431,2020,9.2,3200.0,192,284.0,253.0,12.0,300.0,8.0,68.096,700.0,0.7,2.8,2080.0,Poor
W271030077220001,539,Rajasthan,BHARATPUR,SEWAR,Ludhawai_GWD,27.175,77.395,2020,8.8,2480.0,72,418.0,135.0,14.0,250.0,24.0,46.208,500.0,0.6,5.5,1612.0,Moderate
W272342077210901,540,Rajasthan,BHARATPUR,DEEG,MANDHERA,27.395,77.353,2020,8.4,10650.0,48,2765.0,1692.0,26.0,2300.0,80.0,510.72,1700.0000000000002,260.0,1.4,6923.0,Poor
W242330080325001,541,Rajasthan,BHARATPUR,PAHARI,PAHARI,27.7,77.083,2020,8.3,5730.0,0,1149.0,1003.0,15.0,739.9999999999999,72.0,136.192,1150.0,2.1,1.7500000000000002,3725.0,Poor
W212730079502501,542,Rajasthan,BHARATPUR,DEEG,SIHORA,27.57,77.3,2020,8.5,4530.0,36,539.0,1381.0,40.0,960.0,104.0,170.24,740.0,5.0,1.25,2945.0,Poor
W254315075211501,543,Rajasthan,BHILWARA,JAHAZPUR,AMARWASI,25.7,75.354,2020,7.3,2010.0,0,319.0,258.0,81.0,360.0,60.0,51.072,294.0,7.3,0.76,1307.0,Poor
W255000074170001,544,Rajasthan,BHILWARA,ASIND,BADNOR,25.833,74.283,2020,7.1,1840.0,0,184.0,142.0,69.0,390.0,76.0,49.0,216.0,48.0,1.16,1196.0,Moderate
W252915074420001,545,Rajasthan,BHILWARA,BANERA,BANERAMATAJI,25.488,74.665,2020,8.3,1000.0,0,71.0,178.0,5.1,400.0,64.0,58.0,38.99999999999999,14.0,0.21999999999999997,650.0,Good
W254530074280001,546,Rajasthan,BHILWARA,ASIND,BARASNI,25.758,74.467,2020,8.2,1380.0,0,163.0,86.0,39.0,180.0,36.0,22.0,216.0,35.0,1.5,897.0,Excellent
W252928075021201,547,Rajasthan,BHILWARA,KOTRI,Bhagwanpura,25.469,75.055,2020,8.6,770.0,36,57.0,96.0,6.2,160.0,40.0,15.0,98.0,10.0,1.4,500.99999999999994,Good
W251440075023001,548,Rajasthan,BHILWARA,MANDALGARH,BIGOD,25.244,75.03,2020,8.9,490.0,24,43.0,58.0,7.6,130.0,20.0,19.0,55.0,2.1,0.39,319.0,Good
W251012075192201,549,Rajasthan,BHILWARA,BIJOLIYAN,BIJOLIA,25.17,75.323,2020,8.2,1115.0,0,135.0,95.0,43.0,270.0,68.0,24.0,128.0,8.9,0.57,725.0,Excellent
W254100075200001,550,Rajasthan,BHILWARA,JAHAZPUR,BORANI,25.683,75.333,2020,8.0,2900.0,0,624.0,252.0,194.0,560.0,80.0,88.0,409.0,4.8,1.96,1885.0,Worst
W253140074180301,551,Rajasthan,BHILWARA,MANDAL,Dahimatha,25.528,74.301,2020,7.7,7010.0,0,2198.0,288.0,10.0,1300.0,220.0,182.0,1012.0,6.2,1.7500000000000002,4557.0,Poor
W253800074164501,552,Rajasthan,BHILWARA,ASIND,Daulatgarh,25.633,74.32,2020,8.8,580.0,36,78.0,48.0,20.0,130.0,20.0,19.0,73.0,2.8,1.27,377.0,Good
W251700074093001,553,Rajasthan,BHILWARA,RAIPUR,DEVARIA,25.283,74.158,2020,8.4,2280.0,60,234.0,382.0,43.0,500.0,64.0,83.0,291.0,7.0,1.9399999999999997,1482.0,Moderate
W255200074330001,554,Rajasthan,BHILWARA,HURDA,GAGEDA,25.867,74.55,2020,8.3,1580.0,0,149.0,138.0,16.0,190.0,36.0,24.0,258.0,34.0,4.07,1027.0,Good
W251143074173901,555,Rajasthan,BHILWARA,SAHARA,Galodiya,25.195,74.294,2020,8.6,2260.0,54,199.0,330.0,15.0,300.0,40.0,49.0,469.0,11.0,1.0,1729.0,Moderate
W251300074153501,556,Rajasthan,BHILWARA,SAHARA,GANGAPUR1,25.217,74.26,2020,8.7,1140.0,48,121.0,91.0,28.999999999999996,120.0,24.0,15.0,199.0,6.2,0.49,741.0000000000001,Good
W255400074410001,557,Rajasthan,BHILWARA,HURDA,GULABPURA,25.9,74.67,2020,7.9,9550.0,0,1985.0,1438.0,60.0,1200.0,172.0,187.0,1633.0,21.0,2.52,6208.0,Worst
W251050074345001,558,Rajasthan,BHILWARA,SUWANA,HAMIRGARH,25.181,74.63,2020,8.6,1900.0,60,184.0,330.0,28.999999999999996,120.0,24.0,15.0,382.0,4.5,1.49,1235.0,Moderate
W253715075163001,559,Rajasthan,BHILWARA,JAHAZPUR,JAHAJPUR,25.621,75.275,2020,8.6,1410.0,72,127.0,104.0,55.0,300.0,48.0,44.0,184.0,4.6,3.29,917.0,Good
W254520074542001,560,Rajasthan,BHILWARA,SHAHPURA,KANCHAN-KALA,25.756,74.906,2020,8.2,830.0,0,85.0,68.0,1.6,170.0,40.0,17.0,106.0,14.0,1.19,540.0,Excellent
W251322074253001,561,Rajasthan,BHILWARA,SUWANA,Karoi Kalan,25.223,74.425,2020,7.6,4510.0,0,960.0,212.0,540.0,1760.0,408.0,180.0,250.0,1.2,0.9,2931.0,Poor
W252230074463001,562,Rajasthan,BHILWARA,SUWANA,KODUKOTA,25.371,74.775,2020,8.5,540.0,36,35.0,54.0,5.0,220.0,60.0,17.0,40.0,1.0,0.65,351.0,Excellent
W252350074533001,563,Rajasthan,BHILWARA,KOTRI,KOTARI,25.397,74.892,2020,7.6,2250.0,0,290.0,35.0,320.0,850.0,83.0,156.0,140.0,1.3,0.55,1463.0,Poor
W250915075071701,564,Rajasthan,BHILWARA,MANDALGARH,Ladpura,25.154,75.121,2020,8.2,520.0,0,43.0,44.0,40.0,250.0,64.0,22.0,20.0,0.20000000000000004,0.4,338.0,Excellent
W251700075053801,565,Rajasthan,BHILWARA,MANDALGARH,MANDALGARH1,25.183,75.094,2020,8.7,350.0,48,30.0,6.0,8.0,170.0,44.00000000000001,15.0,23.0,0.3,0.35,228.0,Good
W251610074381501,566,Rajasthan,BHILWARA,SUWANA,MANDAPIA RS,25.269,74.638,2020,8.2,910.0,0,213.0,87.0,8.0,380.0,84.0,41.344,65.0,1.0,0.38,592.0,Good
W252715074111501,567,Rajasthan,BHILWARA,RAIPUR,NANGPURA,25.454,74.188,2020,8.4,2150.0,36,440.0,55.0,80.0,550.0,128.0,55.936,245.0,2.1,0.5,1398.0,Poor
W253104075053001,568,Rajasthan,BHILWARA,KOTRI,PAROLI,25.518,75.092,2020,8.5,530.0,36,46.0,10.0,60.0,200.0,52.0,17.024,40.0,1.0,0.5,345.0,Good
W252226074063001,569,Rajasthan,BHILWARA,RAIPUR,PITAKHERA,25.385,74.108,2020,8.2,1210.0,0,149.0,84.99999999999999,19.0,300.0,84.0,21.888,140.0,1.0,1.3,787.0000000000001,Good
W253800074360001,570,Rajasthan,BHILWARA,BANERA,RAILA ROAD,25.633,74.6,2020,8.6,2910.0,48,550.0,46.0,402.0,650.0,124.0,82.688,401.99999999999994,5.2,1.3,1892.0,Worst
W224800086564501,571,Rajasthan,BHILWARA,RAIPUR,Raipur,25.404,74.161,2020,8.6,950.0,48,142.0,10.0,8.0,220.0,64.0,14.591999999999999,120.0,1.3,1.1,618.0,Good
W250650075154001,572,Rajasthan,BHILWARA,BIJOLIYAN,SALAWATIA,25.114,75.261,2020,8.6,360.0,48,34.0,4.0,4.0,170.0,44.00000000000001,14.591999999999999,20.0,0.3,0.32,234.0,Good
W251825074520001,573,Rajasthan,BHILWARA,KOTRI,Sawaipur,25.308,74.833,2020,7.7,2160.0,0,390.0,7.0,495.99999999999994,1000.0,252.0,89.984,140.0,1.6000000000000003,0.7,1697.0,Poor
W253615074540001,574,Rajasthan,BHILWARA,SHAHPURA,SOPURA,25.604,74.9,2020,8.9,710.0,48,50.0,8.0,9.0,160.0,44.00000000000001,12.16,92.0,0.20000000000000004,1.7,462.0,Good
W252100074420001,575,Rajasthan,BHILWARA,SUWANA,SUWANA1,25.35,74.7,2020,8.5,2480.0,36,502.0,60.0,21.0,320.0,84.0,27.0,450.0,12.0,1.5,1612.0,Moderate
W253340074480001,576,Rajasthan,BHILWARA,SHAHPURA,Taswaria Khurd,25.561,74.8,2020,8.8,480.0,48,28.0,1.0,9.0,170.0,40.0,17.0,42.0,1.0,0.95,312.0,Good
W253551074184801,577,Rajasthan,BHILWARA,ASIND,TILOLI,25.598,74.313,2020,8.1,1060.0,0,163.0,80.0,8.0,260.0,64.0,24.32,125.0,1.1,0.72,689.0000000000001,Excellent
W281515072511001,578,Rajasthan,BIKANER,KHAJUWALA,AMARPURA,28.223,72.824,2020,8.5,2100.0,60,262.0,455.0,68.0,220.0,56.0,19.456,390.99999999999994,7.0,0.98,1365.0,Moderate
W285600073530001,579,Rajasthan,BIKANER,LUNKARANSAR,ARJANSAR,28.933,73.883,2020,8.3,290.0,0,28.0,13.0,0.4,90.0,16.0,12.16,25.0,3.7,0.49,189.0,Excellent
W275600072303001,580,Rajasthan,BIKANER,KOLAYAT,BAJJU,27.933,72.508,2020,8.0,525.0,0,28.0,106.0,1.4000000000000001,150.0,36.0,14.591999999999999,50.0,4.3,0.4099999999999999,341.0,Excellent
W282800073270001,581,Rajasthan,BIKANER,LUNKARANSAR,BINJAWARI,28.467,73.45,2020,8.5,520.0,24,28.0,24.0,0.6,160.0,32.0,19.456,26.0,36.0,0.4099999999999999,338.0,Excellent
W284000073080001,582,Rajasthan,BIKANER,KHAJUWALA,CHHATARGARH,28.667,73.133,2020,7.9,4310.0,0,1191.0,258.0,14.0,440.0,72.0,63.232,783.0,11.0,1.9300000000000002,2802.0,Moderate
W275930072160001,583,Rajasthan,BIKANER,KOLAYAT,GODU,27.992,72.297,2020,7.8,340.0,0,35.0,32.0,23.0,150.0,24.0,21.888,8.0,4.1,0.08,221.0,Excellent
W283435073484001,584,Rajasthan,BIKANER,LUNKARANSAR,HARIASAR,28.576,73.811,2020,7.9,350.0,0,50.0,38.0,5.4,90.0,20.0,9.728,38.0,5.5,0.3,228.0,Excellent
W281945073291501,585,Rajasthan,BIKANER,LUNKARANSAR,KASTURIA,28.329,73.488,2020,8.1,332.0,0,50.0,22.0,1.0,100.0,20.0,12.16,28.0,4.1,0.12000000000000001,216.0,Excellent
W281145073232801,586,Rajasthan,BIKANER,BIKANER,KHARA1,28.196,73.391,2020,8.2,430.0,0,28.0,42.0,2.3,140.0,20.0,21.888,33.0,4.2,0.01,280.0,Excellent
W285600073243001,587,Rajasthan,BIKANER,LUNKARANSAR,KHARBARO,28.933,73.408,2020,8.5,1180.0,72,50.0,164.0,20.0,90.0,20.0,9.728,221.00000000000003,16.0,2.7,767.0000000000001,Excellent
W282845073333001,588,Rajasthan,BIKANER,LUNKARANSAR,Khirera,28.479,73.558,2020,8.3,1160.0,24,71.0,154.00000000000003,209.00000000000003,320.0,60.0,41.344,120.0,2.1,0.67,754.0000000000001,Good
W280545073521501,589,Rajasthan,BIKANER,DUNGARGARH,LAKHASAR2,28.096,73.871,2020,8.4,3800.0,120,340.0,420.0,140.0,200.0,16.0,39.0,793.0,7.7,0.32,2470.0,Moderate
W281900073113001,590,Rajasthan,BIKANER,BIKANER,LAKHUSAR,28.317,73.192,2020,8.2,330.0,0,43.0,38.0,1.4000000000000001,80.0,16.0,9.7,33.0,11.0,0.05,215.0,Excellent
W281630073540001,591,Rajasthan,BIKANER,DUNGARGARH,LODERA,28.275,73.95,2020,8.4,2490.0,84,340.0,318.0,61.0,160.0,32.0,19.0,498.00000000000006,4.5,1.12,1619.0,Moderate
W284700073500001,592,Rajasthan,BIKANER,LUNKARANSAR,MAHAJAN,28.783,73.833,2020,8.3,600.0,0,108.0,48.0,0.5,100.0,20.0,12.0,92.0,3.2000000000000006,0.01,390.0,Excellent
W283830073520001,593,Rajasthan,BIKANER,LUNKARANSAR,MALKISAR,28.667,73.919,2020,8.2,300.0,0,28.0,32.0,0.4,100.0,24.0,10.0,23.0,5.8,0.21999999999999997,195.0,Excellent
W284530073462001,594,Rajasthan,BIKANER,LUNKARANSAR,MANARIA,28.758,73.772,2020,8.5,3400.0,96,369.0,548.0,259.0,280.0,40.0,44.0,634.0,44.0,2.85,2210.0,Moderate
W280300072293001,595,Rajasthan,BIKANER,KOLAYAT,MANKASAR,28.035,72.492,2020,8.4,1700.0,60,113.0,148.0,54.0,90.0,16.0,12.2,350.0,3.0,5.9,1105.0,Good
W273830072390001,596,Rajasthan,BIKANER,KOLAYAT,NOKHRA,27.642,72.65,2020,7.8,4470.0,0,1092.0,460.0,9.0,600.0,80.0,97.0,750.0,7.0,1.37,2906.0,Poor
W285305073171501,597,Rajasthan,BIKANER,LUNKARANSAR,RANER,28.885,73.288,2020,8.2,1520.0,0,99.0,242.0,55.0,350.0,92.0,29.0,188.0,5.0,6.43,988.0000000000001,Good
W280135072073001,598,Rajasthan,BIKANER,KOLAYAT,RANJITPURA,28.026,72.125,2020,8.5,1185.0,60,28.0,34.0,23.0,70.0,12.0,10.0,244.0,1.6000000000000003,5.2,770.0,Excellent
W283530073044501,599,Rajasthan,BIKANER,KHAJUWALA,SATTASAR,28.592,73.192,2020,8.5,3860.0,36,596.0,888.0000000000001,17.0,730.0,112.0,109.0,546.0,15.0,1.8700000000000003,2509.0,Poor
W253100076100001,600,Rajasthan,BUNDI,KESHORAI PATAN,Dahi Khera,25.517,76.167,2020,8.0,2640.0,0,369.0,282.0,28.0,750.0,115.99999999999999,112.00000000000001,327.0,14.14,0.3,1716.0,Poor
W252815075520001,601,Rajasthan,BUNDI,BUNDI,DELUNDA,25.471,75.867,2020,8.3,4500.0,0,461.0,734.0,126.0,840.0,140.0,119.00000000000001,649.0,6.26,0.69,2925.0,Worst
W253230075594501,602,Rajasthan,BUNDI,KESHORAI PATAN,GAINDOLI,25.542,75.996,2020,7.9,1930.0,0,191.0,292.0,57.99999999999999,420.0,72.0,58.0,260.0,1.56,0.63,1265.0,Moderate
W252328076042501,603,Rajasthan,BUNDI,KESHORAI PATAN,KAPREN,25.391,76.074,2020,8.3,4000.0,0,340.0,307.0,3.5,700.0,100.0,109.0,599.0,11.0,0.45,2600.0,Poor
W251908075555001,604,Rajasthan,BUNDI,KESHORAI PATAN,KESHORAIPATAN,25.319,75.931,2020,8.5,4930.0,120,596.0,302.0,20.0,500.0,76.0,75.0,908.0,1.37,2.29,3205.0,Poor
W254000076110001,605,Rajasthan,BUNDI,KESHORAI PATAN,LAKHERI,25.667,76.183,2020,7.8,750.0,0,78.0,48.0,44.0,200.0,40.0,24.0,81.0,1.94,0.18,488.00000000000006,Excellent
W252430075531501,606,Rajasthan,BUNDI,KESHORAI PATAN,MAIJA,25.408,75.888,2020,8.5,1500.0,120,170.0,248.00000000000003,1.5,240.0,24.0,44.0,322.0,1.79,1.66,1216.0,Good
W252820075331501,607,Rajasthan,BUNDI,HINDOLI,SATUR,25.437,75.515,2020,7.8,2440.0,0,340.0,478.0,11.0,530.0,72.0,85.0,366.0,1.21,1.81,1586.0,Poor
W204412077002601,608,Rajasthan,CHITTAURGARH,BHOPALSAGAR,AKOLA,24.75,74.199,2020,7.3,3300.0,0,848.0,149.0,52.0,1080.0,216.0,131.0,268.0,4.1,0.02,2145.0,Poor
W244336074270001,609,Rajasthan,CHITTAURGARH,BHADESAR,BANSEN,24.727,74.45,2020,7.5,1800.0,0,298.0,168.0,72.0,600.0,86.0,94.0,138.0,5.5,0.16,1170.0,Poor
W250300074380001,610,Rajasthan,CHITTAURGARH,GANGRAR,GANGRAR1,25.05,74.633,2020,7.1,6690.0,0,1730.0,323.0,512.0,2760.0,584.0,316.0,270.0,2.0,0.07,4349.0,Worst
